{"type":"FeatureCollection","features":[{"type":"Feature","geometry":{"type":"Point","coordinates":[136.07348,35.6445]},"properties":{"name":"敦賀市","kind":"locality","mz":8,"pop":66665}},{"type":"Feature","geometry":{"type":"Point","coordinates":[135.94319,35.60093]},"properties":{"name":"美浜町","kind":"locality","mz":8,"pop":10244}},{"type":"Feature","geometry":{"type":"Point","coordinates":[135.90513,35.54323]},"properties":{"name":"若狭町","kind":"locality","mz":8,"pop":15797}},{"type":"Feature","geometry":{"type":"Point","coordinates":[136.03563,35.35294]},"properties":{"name":"高島市","kind":"locality","mz":8,"pop":48132}},{"type":"Feature","geometry":{"type":"Point","coordinates":[135.85483,35.0178]},"properties":{"name":"大津市","kind":"locality","mz":7,"pop":340973}},{"type":"Feature","geometry":{"type":"Point","coordinates":[135.95989,35.01316]},"properties":{"name":"草津市","kind":"locality","mz":8,"pop":137247}},{"type":"Feature","geometry":{"type":"Point","coordinates":[135.99431,35.05888]},"properties":{"name":"守山市","kind":"locality","mz":8,"pop":81666}},{"type":"Feature","geometry":{"type":"Point","coordinates":[135.99808,35.02163]},"properties":{"name":"栗東市","kind":"locality","mz":8,"pop":66749}},{"type":"Feature","geometry":{"type":"Point","coordinates":[136.09795,35.12837]},"properties":{"name":"近江八幡市","kind":"locality","mz":8,"pop":81312}},{"type":"Feature","geometry":{"type":"Point","coordinates":[136.02589,35.06748]},"properties":{"name":"野洲市","kind":"locality","mz":8,"pop":49889}},{"type":"Feature","geometry":{"type":"Point","coordinates":[136.08473,35.0042]},"properties":{"name":"湖南市","kind":"locality","mz":8,"pop":54240}},{"type":"Feature","geometry":{"type":"Point","coordinates":[135.88826,34.85361]},"properties":{"name":"宇治田原町","kind":"locality","mz":8,"pop":9319}},{"type":"Feature","geometry":{"type":"Point","coordinates":[135.90504,34.79562]},"properties":{"name":"和束町","kind":"locality","mz":8,"pop":3956}},{"type":"Feature","geometry":{"type":"Point","coordinates":[135.93937,34.76044]},"properties":{"name":"笠置町","kind":"locality","mz":8,"pop":1368}},{"type":"Feature","geometry":{"type":"Point","coordinates":[135.99375,34.77267]},"properties":{"name":"南山城村","kind":"locality","mz":12,"pop":2652}},{"type":"Feature","geometry":{"type":"Point","coordinates":[135.83736,34.59658]},"properties":{"name":"天理市","kind":"locality","mz":8,"pop":67899}},{"type":"Feature","geometry":{"type":"Point","coordinates":[136.22626,36.16771]},"properties":{"name":"坂井市","kind":"locality","mz":8,"pop":90280}},{"type":"Feature","geometry":{"type":"Point","coordinates":[136.22918,36.21139]},"properties":{"name":"あわら市","kind":"locality","mz":8,"pop":29507}},{"type":"Feature","geometry":{"type":"Point","coordinates":[136.22605,36.06176]},"properties":{"name":"福井市","kind":"locality","mz":7,"pop":267428}},{"type":"Feature","geometry":{"type":"Point","coordinates":[136.16931,35.90376]},"properties":{"name":"越前市","kind":"locality","mz":8,"pop":84936}},{"type":"Feature","geometry":{"type":"Point","coordinates":[136.18438,35.95651]},"properties":{"name":"鯖江市","kind":"locality","mz":8,"pop":67710}},{"type":"Feature","geometry":{"type":"Point","coordinates":[136.12348,35.97478]},"properties":{"name":"越前町","kind":"locality","mz":8,"pop":22625}},{"type":"Feature","geometry":{"type":"Point","coordinates":[136.19455,35.8333]},"properties":{"name":"南越前町","kind":"locality","mz":8,"pop":11271}},{"type":"Feature","geometry":{"type":"Point","coordinates":[136.25965,35.27442]},"properties":{"name":"彦根市","kind":"locality","mz":8,"pop":113468}},{"type":"Feature","geometry":{"type":"Point","coordinates":[136.26373,35.16802]},"properties":{"name":"愛荘町","kind":"locality","mz":8,"pop":20778}},{"type":"Feature","geometry":{"type":"Point","coordinates":[136.23528,35.19745]},"properties":{"name":"豊郷町","kind":"locality","mz":8,"pop":7422}},{"type":"Feature","geometry":{"type":"Point","coordinates":[136.26411,35.20481]},"properties":{"name":"甲良町","kind":"locality","mz":8,"pop":7039}},{"type":"Feature","geometry":{"type":"Point","coordinates":[136.20729,35.11243]},"properties":{"name":"東近江市","kind":"locality","mz":8,"pop":113269}},{"type":"Feature","geometry":{"type":"Point","coordinates":[136.24605,35.01805]},"properties":{"name":"日野町","kind":"locality","mz":8,"pop":21873}},{"type":"Feature","geometry":{"type":"Point","coordinates":[136.11833,35.05825]},"properties":{"name":"竜王町","kind":"locality","mz":8,"pop":12434}},{"type":"Feature","geometry":{"type":"Point","coordinates":[136.16687,34.96623]},"properties":{"name":"甲賀市","kind":"locality","mz":8,"pop":90458}},{"type":"Feature","geometry":{"type":"Point","coordinates":[136.14232,34.74979]},"properties":{"name":"伊賀市","kind":"locality","mz":8,"pop":82639}},{"type":"Feature","geometry":{"type":"Point","coordinates":[136.10868,34.62791]},"properties":{"name":"名張市","kind":"locality","mz":8,"pop":81469}},{"type":"Feature","geometry":{"type":"Point","coordinates":[136.44955,36.40329]},"properties":{"name":"小松市","kind":"locality","mz":8,"pop":106919}},{"type":"Feature","geometry":{"type":"Point","coordinates":[136.3151,36.30278]},"properties":{"name":"加賀市","kind":"locality","mz":8,"pop":68864}},{"type":"Feature","geometry":{"type":"Point","coordinates":[136.29952,36.09284]},"properties":{"name":"永平寺町","kind":"locality","mz":8,"pop":20423}},{"type":"Feature","geometry":{"type":"Point","coordinates":[136.34231,35.89065]},"properties":{"name":"池田町","kind":"locality","mz":8,"pop":2920}},{"type":"Feature","geometry":{"type":"Point","coordinates":[136.27849,35.38086]},"properties":{"name":"長浜市","kind":"locality","mz":8,"pop":115712}},{"type":"Feature","geometry":{"type":"Point","coordinates":[136.29162,35.31502]},"properties":{"name":"米原市","kind":"locality","mz":8,"pop":38719}},{"type":"Feature","geometry":{"type":"Point","coordinates":[136.32647,35.21446]},"properties":{"name":"多賀町","kind":"locality","mz":8,"pop":7355}},{"type":"Feature","geometry":{"type":"Point","coordinates":[136.33394,35.2357]},"properties":{"name":"杉","kind":"locality","mz":12,"pop":0}},{"type":"Feature","geometry":{"type":"Point","coordinates":[136.31875,35.25803]},"properties":{"name":"後谷","kind":"locality","mz":12,"pop":0}},{"type":"Feature","geometry":{"type":"Point","coordinates":[136.35295,35.26815]},"properties":{"name":"落合","kind":"locality","mz":12,"pop":0}},{"type":"Feature","geometry":{"type":"Point","coordinates":[136.36196,35.23878]},"properties":{"name":"保月","kind":"locality","mz":12,"pop":0}},{"type":"Feature","geometry":{"type":"Point","coordinates":[136.38166,35.23987]},"properties":{"name":"五僧","kind":"locality","mz":12,"pop":0}},{"type":"Feature","geometry":{"type":"Point","coordinates":[136.33149,35.25708]},"properties":{"name":"甲頭倉","kind":"locality","mz":12,"pop":0}},{"type":"Feature","geometry":{"type":"Point","coordinates":[136.44668,34.86199]},"properties":{"name":"亀山市","kind":"locality","mz":8,"pop":50146}},{"type":"Feature","geometry":{"type":"Point","coordinates":[136.56581,36.51436]},"properties":{"name":"白山市","kind":"locality","mz":8,"pop":110408}},{"type":"Feature","geometry":{"type":"Point","coordinates":[136.54242,36.43924]},"properties":{"name":"能美市","kind":"locality","mz":8,"pop":48881}},{"type":"Feature","geometry":{"type":"Point","coordinates":[136.6098,36.51971]},"properties":{"name":"野々市市","kind":"locality","mz":8,"pop":55099}},{"type":"Feature","geometry":{"type":"Point","coordinates":[136.54821,36.46968]},"properties":{"name":"川北町","kind":"locality","mz":8,"pop":6347}},{"type":"Feature","geometry":{"type":"Point","coordinates":[136.50079,36.06076]},"properties":{"name":"勝山市","kind":"locality","mz":8,"pop":24888}},{"type":"Feature","geometry":{"type":"Point","coordinates":[136.48745,35.97971]},"properties":{"name":"大野市","kind":"locality","mz":8,"pop":34256}},{"type":"Feature","geometry":{"type":"Point","coordinates":[136.57456,35.44186]},"properties":{"name":"池田町","kind":"locality","mz":8,"pop":24885}},{"type":"Feature","geometry":{"type":"Point","coordinates":[136.56856,35.48734]},"properties":{"name":"揖斐川町","kind":"locality","mz":8,"pop":22959}},{"type":"Feature","geometry":{"type":"Point","coordinates":[136.61289,35.35966]},"properties":{"name":"大垣市","kind":"locality","mz":8,"pop":159595}},{"type":"Feature","geometry":{"type":"Point","coordinates":[136.52899,35.37103]},"properties":{"name":"垂井町","kind":"locality","mz":8,"pop":28363}},{"type":"Feature","geometry":{"type":"Point","coordinates":[136.56165,35.30553]},"properties":{"name":"養老町","kind":"locality","mz":8,"pop":30759}},{"type":"Feature","geometry":{"type":"Point","coordinates":[136.60864,35.41626]},"properties":{"name":"神戸町","kind":"locality","mz":8,"pop":19751}},{"type":"Feature","geometry":{"type":"Point","coordinates":[136.46805,35.36239]},"properties":{"name":"関ヶ原町","kind":"locality","mz":8,"pop":7838}},{"type":"Feature","geometry":{"type":"Point","coordinates":[136.51667,35.15841]},"properties":{"name":"いなべ市","kind":"locality","mz":8,"pop":45488}},{"type":"Feature","geometry":{"type":"Point","coordinates":[136.50727,35.01998]},"properties":{"name":"菰野町","kind":"locality","mz":8,"pop":40210}},{"type":"Feature","geometry":{"type":"Point","coordinates":[136.5837,35.07426]},"properties":{"name":"東員町","kind":"locality","mz":8,"pop":25344}},{"type":"Feature","geometry":{"type":"Point","coordinates":[136.62486,34.96485]},"properties":{"name":"四日市市","kind":"locality","mz":8,"pop":307220}},{"type":"Feature","geometry":{"type":"Point","coordinates":[136.58366,34.88171]},"properties":{"name":"鈴鹿市","kind":"locality","mz":8,"pop":196853}},{"type":"Feature","geometry":{"type":"Point","coordinates":[136.51534,34.73421]},"properties":{"name":"津市","kind":"locality","mz":6,"pop":279886}},{"type":"Feature","geometry":{"type":"Point","coordinates":[136.52761,34.57793]},"properties":{"name":"松阪市","kind":"locality","mz":8,"pop":161703}},{"type":"Feature","geometry":{"type":"Point","coordinates":[136.75777,37.06641]},"properties":{"name":"志賀町","kind":"locality","mz":8,"pop":20845}},{"type":"Feature","geometry":{"type":"Point","coordinates":[136.77828,36.89483]},"properties":{"name":"羽咋市","kind":"locality","mz":8,"pop":21977}},{"type":"Feature","geometry":{"type":"Point","coordinates":[136.79751,36.86283]},"properties":{"name":"宝達志水町","kind":"locality","mz":8,"pop":13220}},{"type":"Feature","geometry":{"type":"Point","coordinates":[136.71957,36.74982]},"properties":{"name":"かほく市","kind":"locality","mz":8,"pop":34889}},{"type":"Feature","geometry":{"type":"Point","coordinates":[136.73365,36.66639]},"properties":{"name":"津幡町","kind":"locality","mz":8,"pop":36968}},{"type":"Feature","geometry":{"type":"Point","coordinates":[136.65499,36.66288]},"properties":{"name":"内灘町","kind":"locality","mz":8,"pop":26987}},{"type":"Feature","geometry":{"type":"Point","coordinates":[136.65688,36.56163]},"properties":{"name":"金沢市","kind":"locality","mz":6,"pop":465699}},{"type":"Feature","geometry":{"type":"Point","coordinates":[136.67808,35.48304]},"properties":{"name":"本巣市","kind":"locality","mz":8,"pop":34970}},{"type":"Feature","geometry":{"type":"Point","coordinates":[136.78176,35.5061]},"properties":{"name":"山県市","kind":"locality","mz":8,"pop":28894}},{"type":"Feature","geometry":{"type":"Point","coordinates":[136.62761,35.46969]},"properties":{"name":"大野町","kind":"locality","mz":8,"pop":23730}},{"type":"Feature","geometry":{"type":"Point","coordinates":[136.68468,35.43767]},"properties":{"name":"北方町","kind":"locality","mz":8,"pop":3560}},{"type":"Feature","geometry":{"type":"Point","coordinates":[136.76275,35.42308]},"properties":{"name":"岐阜市","kind":"locality","mz":6,"pop":404352}},{"type":"Feature","geometry":{"type":"Point","coordinates":[136.70275,35.3195]},"properties":{"name":"羽島市","kind":"locality","mz":8,"pop":67153}},{"type":"Feature","geometry":{"type":"Point","coordinates":[136.69112,35.39195]},"properties":{"name":"瑞穂市","kind":"locality","mz":8,"pop":52692}},{"type":"Feature","geometry":{"type":"Point","coordinates":[136.76399,35.36858]},"properties":{"name":"笠松町","kind":"locality","mz":8,"pop":22807}},{"type":"Feature","geometry":{"type":"Point","coordinates":[136.78249,35.38982]},"properties":{"name":"岐南町","kind":"locality","mz":8,"pop":23994}},{"type":"Feature","geometry":{"type":"Point","coordinates":[136.66546,35.33417]},"properties":{"name":"安八町","kind":"locality","mz":8,"pop":15100}},{"type":"Feature","geometry":{"type":"Point","coordinates":[136.63447,35.2849]},"properties":{"name":"輪之内町","kind":"locality","mz":8,"pop":9934}},{"type":"Feature","geometry":{"type":"Point","coordinates":[136.75897,35.24047]},"properties":{"name":"稲沢市","kind":"locality","mz":8,"pop":136285}},{"type":"Feature","geometry":{"type":"Point","coordinates":[136.79352,35.19138]},"properties":{"name":"あま市","kind":"locality","mz":8,"pop":87350}},{"type":"Feature","geometry":{"type":"Point","coordinates":[136.7582,35.16679]},"properties":{"name":"津島市","kind":"locality","mz":8,"pop":62525}},{"type":"Feature","geometry":{"type":"Point","coordinates":[136.72803,35.15311]},"properties":{"name":"愛西市","kind":"locality","mz":8,"pop":62113}},{"type":"Feature","geometry":{"type":"Point","coordinates":[136.63722,35.22052]},"properties":{"name":"海津市","kind":"locality","mz":8,"pop":36950}},{"type":"Feature","geometry":{"type":"Point","coordinates":[136.6843,35.06661]},"properties":{"name":"桑名市","kind":"locality","mz":8,"pop":140051}},{"type":"Feature","geometry":{"type":"Point","coordinates":[136.72481,35.11022]},"properties":{"name":"弥富市","kind":"locality","mz":8,"pop":43269}},{"type":"Feature","geometry":{"type":"Point","coordinates":[136.78682,35.13226]},"properties":{"name":"蟹江町","kind":"locality","mz":8,"pop":37085}},{"type":"Feature","geometry":{"type":"Point","coordinates":[136.67958,35.01784]},"properties":{"name":"川越町","kind":"locality","mz":8,"pop":14558}},{"type":"Feature","geometry":{"type":"Point","coordinates":[136.66293,35.03653]},"properties":{"name":"朝日町","kind":"locality","mz":8,"pop":10560}},{"type":"Feature","geometry":{"type":"Point","coordinates":[136.73146,35.07556]},"properties":{"name":"木曽岬町","kind":"locality","mz":8,"pop":6637}},{"type":"Feature","geometry":{"type":"Point","coordinates":[136.7915,35.07928]},"properties":{"name":"飛島村","kind":"locality","mz":12,"pop":4397}},{"type":"Feature","geometry":{"type":"Point","coordinates":[136.89956,37.39092]},"properties":{"name":"輪島市","kind":"locality","mz":8,"pop":27460}},{"type":"Feature","geometry":{"type":"Point","coordinates":[136.91257,37.23057]},"properties":{"name":"穴水町","kind":"locality","mz":8,"pop":8786}},{"type":"Feature","geometry":{"type":"Point","coordinates":[136.94647,37.05209]},"properties":{"name":"七尾市","kind":"locality","mz":8,"pop":54638}},{"type":"Feature","geometry":{"type":"Point","coordinates":[136.97042,36.86458]},"properties":{"name":"氷見市","kind":"locality","mz":8,"pop":48836}},{"type":"Feature","geometry":{"type":"Point","coordinates":[136.89913,36.97506]},"properties":{"name":"中能登町","kind":"locality","mz":8,"pop":18386}},{"type":"Feature","geometry":{"type":"Point","coordinates":[136.91922,36.58821]},"properties":{"name":"南砺市","kind":"locality","mz":8,"pop":53584}},{"type":"Feature","geometry":{"type":"Point","coordinates":[136.94681,36.6364]},"properties":{"name":"砺波市","kind":"locality","mz":8,"pop":49222}},{"type":"Feature","geometry":{"type":"Point","coordinates":[136.86888,36.67558]},"properties":{"name":"小矢部市","kind":"locality","mz":8,"pop":31351}},{"type":"Feature","geometry":{"type":"Point","coordinates":[136.89862,36.27102]},"properties":{"name":"白川村","kind":"locality","mz":11,"pop":2000}},{"type":"Feature","geometry":{"type":"Point","coordinates":[136.96432,35.74843]},"properties":{"name":"郡上市","kind":"locality","mz":8,"pop":43504}},{"type":"Feature","geometry":{"type":"Point","coordinates":[136.91814,35.49579]},"properties":{"name":"関市","kind":"locality","mz":8,"pop":90794}},{"type":"Feature","geometry":{"type":"Point","coordinates":[136.9075,35.54427]},"properties":{"name":"美濃市","kind":"locality","mz":8,"pop":22447}},{"type":"Feature","geometry":{"type":"Point","coordinates":[136.97621,35.48513]},"properties":{"name":"富加町","kind":"locality","mz":8,"pop":5540}},{"type":"Feature","geometry":{"type":"Point","coordinates":[136.80691,35.30486]},"properties":{"name":"一宮市","kind":"locality","mz":8,"pop":380672}},{"type":"Feature","geometry":{"type":"Point","coordinates":[136.93411,35.30662]},"properties":{"name":"小牧市","kind":"locality","mz":8,"pop":149023}},{"type":"Feature","geometry":{"type":"Point","coordinates":[136.84858,35.39958]},"properties":{"name":"各務原市","kind":"locality","mz":8,"pop":145494}},{"type":"Feature","geometry":{"type":"Point","coordinates":[136.86673,35.3445]},"properties":{"name":"江南市","kind":"locality","mz":8,"pop":98359}},{"type":"Feature","geometry":{"type":"Point","coordinates":[136.90772,35.36515]},"properties":{"name":"扶桑町","kind":"locality","mz":8,"pop":33806}},{"type":"Feature","geometry":{"type":"Point","coordinates":[136.90802,35.33239]},"properties":{"name":"大口町","kind":"locality","mz":8,"pop":24187}},{"type":"Feature","geometry":{"type":"Point","coordinates":[136.89986,35.1851]},"properties":{"name":"名古屋市","kind":"locality","mz":5,"pop":2236000}},{"type":"Feature","geometry":{"type":"Point","coordinates":[136.97217,35.24762]},"properties":{"name":"春日井市","kind":"locality","mz":8,"pop":300099}},{"type":"Feature","geometry":{"type":"Point","coordinates":[136.86643,35.24565]},"properties":{"name":"北名古屋市","kind":"locality","mz":8,"pop":85369}},{"type":"Feature","geometry":{"type":"Point","coordinates":[136.85313,35.20022]},"properties":{"name":"清須市","kind":"locality","mz":8,"pop":69079}},{"type":"Feature","geometry":{"type":"Point","coordinates":[136.87072,35.27463]},"properties":{"name":"岩倉市","kind":"locality","mz":8,"pop":47957}},{"type":"Feature","geometry":{"type":"Point","coordinates":[136.82467,35.17086]},"properties":{"name":"大治町","kind":"locality","mz":8,"pop":30990}},{"type":"Feature","geometry":{"type":"Point","coordinates":[136.91209,35.25049]},"properties":{"name":"豊山町","kind":"locality","mz":8,"pop":15177}},{"type":"Feature","geometry":{"type":"Point","coordinates":[136.90235,35.0229]},"properties":{"name":"東海市","kind":"locality","mz":8,"pop":113015}},{"type":"Feature","geometry":{"type":"Point","coordinates":[136.95454,35.01657]},"properties":{"name":"大府市","kind":"locality","mz":8,"pop":92902}},{"type":"Feature","geometry":{"type":"Point","coordinates":[136.93694,34.89382]},"properties":{"name":"半田市","kind":"locality","mz":8,"pop":117285}},{"type":"Feature","geometry":{"type":"Point","coordinates":[136.86072,34.97009]},"properties":{"name":"知多市","kind":"locality","mz":8,"pop":84428}},{"type":"Feature","geometry":{"type":"Point","coordinates":[136.83832,34.89586]},"properties":{"name":"常滑市","kind":"locality","mz":8,"pop":57456}},{"type":"Feature","geometry":{"type":"Point","coordinates":[136.94767,34.96953]},"properties":{"name":"東浦町","kind":"locality","mz":8,"pop":49230}},{"type":"Feature","geometry":{"type":"Point","coordinates":[136.91493,34.851]},"properties":{"name":"武豊町","kind":"locality","mz":8,"pop":42473}},{"type":"Feature","geometry":{"type":"Point","coordinates":[136.91952,34.94512]},"properties":{"name":"阿久比町","kind":"locality","mz":8,"pop":27747}},{"type":"Feature","geometry":{"type":"Point","coordinates":[136.90823,34.77877]},"properties":{"name":"美浜町","kind":"locality","mz":8,"pop":23575}},{"type":"Feature","geometry":{"type":"Point","coordinates":[136.93003,34.71509]},"properties":{"name":"南知多町","kind":"locality","mz":8,"pop":18707}},{"type":"Feature","geometry":{"type":"Point","coordinates":[137.14774,37.31041]},"properties":{"name":"能登町","kind":"locality","mz":8,"pop":17568}},{"type":"Feature","geometry":{"type":"Point","coordinates":[137.01874,36.7362]},"properties":{"name":"高岡市","kind":"locality","mz":7,"pop":174389}},{"type":"Feature","geometry":{"type":"Point","coordinates":[137.07539,36.73046]},"properties":{"name":"射水市","kind":"locality","mz":8,"pop":92888}},{"type":"Feature","geometry":{"type":"Point","coordinates":[137.06131,35.42609]},"properties":{"name":"可児市","kind":"locality","mz":8,"pop":97442}},{"type":"Feature","geometry":{"type":"Point","coordinates":[137.01552,35.44064]},"properties":{"name":"美濃加茂市","kind":"locality","mz":8,"pop":55302}},{"type":"Feature","geometry":{"type":"Point","coordinates":[137.12959,35.43162]},"properties":{"name":"御嵩町","kind":"locality","mz":8,"pop":17885}},{"type":"Feature","geometry":{"type":"Point","coordinates":[137.06818,35.4865]},"properties":{"name":"川辺町","kind":"locality","mz":8,"pop":10408}},{"type":"Feature","geometry":{"type":"Point","coordinates":[137.14109,35.47559]},"properties":{"name":"八百津町","kind":"locality","mz":8,"pop":11685}},{"type":"Feature","geometry":{"type":"Point","coordinates":[136.97848,35.4299]},"properties":{"name":"坂祝町","kind":"locality","mz":8,"pop":8345}},{"type":"Feature","geometry":{"type":"Point","coordinates":[137.11976,35.5426]},"properties":{"name":"七宗町","kind":"locality","mz":8,"pop":4246}},{"type":"Feature","geometry":{"type":"Point","coordinates":[137.13195,35.33298]},"properties":{"name":"多治見市","kind":"locality","mz":8,"pop":106714}},{"type":"Feature","geometry":{"type":"Point","coordinates":[136.98453,35.36099]},"properties":{"name":"犬山市","kind":"locality","mz":8,"pop":73992}},{"type":"Feature","geometry":{"type":"Point","coordinates":[137.08401,35.22385]},"properties":{"name":"瀬戸市","kind":"locality","mz":8,"pop":128374}},{"type":"Feature","geometry":{"type":"Point","coordinates":[137.03522,35.21652]},"properties":{"name":"尾張旭市","kind":"locality","mz":8,"pop":81589}},{"type":"Feature","geometry":{"type":"Point","coordinates":[137.04874,35.18381]},"properties":{"name":"長久手市","kind":"locality","mz":8,"pop":59532}},{"type":"Feature","geometry":{"type":"Point","coordinates":[137.03934,35.13191]},"properties":{"name":"日進市","kind":"locality","mz":8,"pop":90062}},{"type":"Feature","geometry":{"type":"Point","coordinates":[137.01294,35.05368]},"properties":{"name":"豊明市","kind":"locality","mz":8,"pop":69127}},{"type":"Feature","geometry":{"type":"Point","coordinates":[137.05165,35.00149]},"properties":{"name":"知立市","kind":"locality","mz":8,"pop":71159}},{"type":"Feature","geometry":{"type":"Point","coordinates":[137.09955,35.09934]},"properties":{"name":"みよし市","kind":"locality","mz":8,"pop":62613}},{"type":"Feature","geometry":{"type":"Point","coordinates":[137.04277,35.09537]},"properties":{"name":"東郷町","kind":"locality","mz":8,"pop":42858}},{"type":"Feature","geometry":{"type":"Point","coordinates":[137.07556,34.94776]},"properties":{"name":"安城市","kind":"locality","mz":8,"pop":186468}},{"type":"Feature","geometry":{"type":"Point","coordinates":[137.00277,34.97467]},"properties":{"name":"刈谷市","kind":"locality","mz":8,"pop":151429}},{"type":"Feature","geometry":{"type":"Point","coordinates":[136.98453,34.86505]},"properties":{"name":"碧南市","kind":"locality","mz":8,"pop":72076}},{"type":"Feature","geometry":{"type":"Point","coordinates":[136.98861,34.92081]},"properties":{"name":"高浜市","kind":"locality","mz":8,"pop":47584}},{"type":"Feature","geometry":{"type":"Point","coordinates":[137.06964,34.82251]},"properties":{"name":"西尾市","kind":"locality","mz":8,"pop":169352}},{"type":"Feature","geometry":{"type":"Point","coordinates":[137.26061,37.4364]},"properties":{"name":"珠洲市","kind":"locality","mz":8,"pop":14759}},{"type":"Feature","geometry":{"type":"Point","coordinates":[137.3076,36.70387]},"properties":{"name":"舟橋村","kind":"locality","mz":12,"pop":3064}},{"type":"Feature","geometry":{"type":"Point","coordinates":[137.21362,36.69575]},"properties":{"name":"富山市","kind":"locality","mz":7,"pop":421259}},{"type":"Feature","geometry":{"type":"Point","coordinates":[137.31395,36.6635]},"properties":{"name":"立山町","kind":"locality","mz":8,"pop":26212}},{"type":"Feature","geometry":{"type":"Point","coordinates":[137.25104,36.13961]},"properties":{"name":"高山市","kind":"locality","mz":8,"pop":91890}},{"type":"Feature","geometry":{"type":"Point","coordinates":[137.18594,36.23832]},"properties":{"name":"飛驒市","kind":"locality","mz":8,"pop":24091}},{"type":"Feature","geometry":{"type":"Point","coordinates":[137.24331,35.80643]},"properties":{"name":"下呂市","kind":"locality","mz":8,"pop":32399}},{"type":"Feature","geometry":{"type":"Point","coordinates":[137.18954,35.58083]},"properties":{"name":"白川町","kind":"locality","mz":8,"pop":9117}},{"type":"Feature","geometry":{"type":"Point","coordinates":[137.32438,35.64261]},"properties":{"name":"東白川村","kind":"locality","mz":12,"pop":2438}},{"type":"Feature","geometry":{"type":"Point","coordinates":[137.18263,35.35248]},"properties":{"name":"土岐市","kind":"locality","mz":8,"pop":59630}},{"type":"Feature","geometry":{"type":"Point","coordinates":[137.25417,35.362]},"properties":{"name":"瑞浪市","kind":"locality","mz":8,"pop":40030}},{"type":"Feature","geometry":{"type":"Point","coordinates":[137.15675,35.08346]},"properties":{"name":"豊田市","kind":"locality","mz":8,"pop":425738}},{"type":"Feature","geometry":{"type":"Point","coordinates":[137.1728,34.95486]},"properties":{"name":"岡崎市","kind":"locality","mz":8,"pop":385221}},{"type":"Feature","geometry":{"type":"Point","coordinates":[137.16079,34.87097]},"properties":{"name":"幸田町","kind":"locality","mz":8,"pop":39549}},{"type":"Feature","geometry":{"type":"Point","coordinates":[137.22516,34.83392]},"properties":{"name":"蒲郡市","kind":"locality","mz":8,"pop":80318}},{"type":"Feature","geometry":{"type":"Point","coordinates":[137.2637,34.66904]},"properties":{"name":"田原市","kind":"locality","mz":8,"pop":61292}},{"type":"Feature","geometry":{"type":"Point","coordinates":[137.44789,36.87128]},"properties":{"name":"黒部市","kind":"locality","mz":8,"pop":41151}},{"type":"Feature","geometry":{"type":"Point","coordinates":[137.50282,36.93497]},"properties":{"name":"入善町","kind":"locality","mz":8,"pop":25788}},{"type":"Feature","geometry":{"type":"Point","coordinates":[137.41828,36.81708]},"properties":{"name":"魚津市","kind":"locality","mz":8,"pop":43364}},{"type":"Feature","geometry":{"type":"Point","coordinates":[137.34138,36.76433]},"properties":{"name":"滑川市","kind":"locality","mz":8,"pop":33235}},{"type":"Feature","geometry":{"type":"Point","coordinates":[137.36172,36.69884]},"properties":{"name":"上市町","kind":"locality","mz":8,"pop":21112}},{"type":"Feature","geometry":{"type":"Point","coordinates":[137.37069,35.71516]},"properties":{"name":"加子母村","kind":"locality","mz":11,"pop":2000}},{"type":"Feature","geometry":{"type":"Point","coordinates":[137.42914,35.66134]},"properties":{"name":"付知町","kind":"locality","mz":10,"pop":10000}},{"type":"Feature","geometry":{"type":"Point","coordinates":[137.50055,35.48765]},"properties":{"name":"中津川市","kind":"locality","mz":8,"pop":80573}},{"type":"Feature","geometry":{"type":"Point","coordinates":[137.4127,35.44927]},"properties":{"name":"恵那市","kind":"locality","mz":8,"pop":47774}},{"type":"Feature","geometry":{"type":"Point","coordinates":[137.49776,34.89888]},"properties":{"name":"新城市","kind":"locality","mz":8,"pop":45918}},{"type":"Feature","geometry":{"type":"Point","coordinates":[137.39146,34.76911]},"properties":{"name":"豊橋市","kind":"locality","mz":8,"pop":373811}},{"type":"Feature","geometry":{"type":"Point","coordinates":[137.37858,34.82765]},"properties":{"name":"豊川市","kind":"locality","mz":8,"pop":183262}},{"type":"Feature","geometry":{"type":"Point","coordinates":[137.55947,36.94567]},"properties":{"name":"朝日町","kind":"locality","mz":8,"pop":11574}},{"type":"Feature","geometry":{"type":"Point","coordinates":[137.56368,35.79617]},"properties":{"name":"王滝村","kind":"locality","mz":11,"pop":839}},{"type":"Feature","geometry":{"type":"Point","coordinates":[137.60887,35.60382]},"properties":{"name":"南木曽町","kind":"locality","mz":8,"pop":4313}},{"type":"Feature","geometry":{"type":"Point","coordinates":[137.66504,35.68296]},"properties":{"name":"大桑村","kind":"locality","mz":12,"pop":3825}},{"type":"Feature","geometry":{"type":"Point","coordinates":[137.63054,35.32367]},"properties":{"name":"平谷村","kind":"locality","mz":11,"pop":484}},{"type":"Feature","geometry":{"type":"Point","coordinates":[137.58183,35.25501]},"properties":{"name":"根羽村","kind":"locality","mz":11,"pop":970}},{"type":"Feature","geometry":{"type":"Point","coordinates":[137.55462,35.13068]},"properties":{"name":"設楽町","kind":"locality","mz":8,"pop":5074}},{"type":"Feature","geometry":{"type":"Point","coordinates":[137.53158,34.71848]},"properties":{"name":"湖西市","kind":"locality","mz":8,"pop":58551}},{"type":"Feature","geometry":{"type":"Point","coordinates":[137.85091,36.50291]},"properties":{"name":"大町市","kind":"locality","mz":8,"pop":26029}},{"type":"Feature","geometry":{"type":"Point","coordinates":[137.85426,36.42405]},"properties":{"name":"松川村","kind":"locality","mz":12,"pop":9948}},{"type":"Feature","geometry":{"type":"Point","coordinates":[137.82572,36.10425]},"properties":{"name":"朝日村","kind":"locality","mz":12,"pop":4462}},{"type":"Feature","geometry":{"type":"Point","coordinates":[137.78315,35.93636]},"properties":{"name":"木祖村","kind":"locality","mz":12,"pop":2926}},{"type":"Feature","geometry":{"type":"Point","coordinates":[137.69161,35.84252]},"properties":{"name":"木曽町","kind":"locality","mz":8,"pop":11826}},{"type":"Feature","geometry":{"type":"Point","coordinates":[137.70371,35.7868]},"properties":{"name":"上松町","kind":"locality","mz":8,"pop":4670}},{"type":"Feature","geometry":{"type":"Point","coordinates":[137.82194,35.51473]},"properties":{"name":"飯田市","kind":"locality","mz":8,"pop":99350}},{"type":"Feature","geometry":{"type":"Point","coordinates":[137.81619,35.32339]},"properties":{"name":"阿南町","kind":"locality","mz":8,"pop":4962}},{"type":"Feature","geometry":{"type":"Point","coordinates":[137.8455,35.37757]},"properties":{"name":"泰阜村","kind":"locality","mz":11,"pop":1702}},{"type":"Feature","geometry":{"type":"Point","coordinates":[137.78641,35.39717]},"properties":{"name":"下條村","kind":"locality","mz":12,"pop":3851}},{"type":"Feature","geometry":{"type":"Point","coordinates":[137.74203,35.17104]},"properties":{"name":"豊根村","kind":"locality","mz":11,"pop":1135}},{"type":"Feature","geometry":{"type":"Point","coordinates":[137.85434,35.27621]},"properties":{"name":"天龍村","kind":"locality","mz":11,"pop":1365}},{"type":"Feature","geometry":{"type":"Point","coordinates":[137.71109,35.27187]},"properties":{"name":"売木村","kind":"locality","mz":11,"pop":575}},{"type":"Feature","geometry":{"type":"Point","coordinates":[137.69804,35.06942]},"properties":{"name":"東栄町","kind":"locality","mz":8,"pop":3446}},{"type":"Feature","geometry":{"type":"Point","coordinates":[137.72594,34.71096]},"properties":{"name":"浜松市","kind":"locality","mz":6,"pop":797033}},{"type":"Feature","geometry":{"type":"Point","coordinates":[137.85151,34.71781]},"properties":{"name":"磐田市","kind":"locality","mz":8,"pop":166426}},{"type":"Feature","geometry":{"type":"Point","coordinates":[137.8628,37.03904]},"properties":{"name":"糸魚川市","kind":"locality","mz":8,"pop":40765}},{"type":"Feature","geometry":{"type":"Point","coordinates":[137.9085,36.77908]},"properties":{"name":"小谷村","kind":"locality","mz":12,"pop":2904}},{"type":"Feature","geometry":{"type":"Point","coordinates":[137.8746,36.42132]},"properties":{"name":"池田町","kind":"locality","mz":8,"pop":9926}},{"type":"Feature","geometry":{"type":"Point","coordinates":[137.88855,36.55291]},"properties":{"name":"美麻","kind":"locality","mz":11,"pop":2000}},{"type":"Feature","geometry":{"type":"Point","coordinates":[137.89747,36.53602]},"properties":{"name":"大塩","kind":"locality","mz":11,"pop":2000}},{"type":"Feature","geometry":{"type":"Point","coordinates":[137.94584,36.44707]},"properties":{"name":"生坂村","kind":"locality","mz":11,"pop":1843}},{"type":"Feature","geometry":{"type":"Point","coordinates":[138.03107,36.4673]},"properties":{"name":"麻績村","kind":"locality","mz":12,"pop":2788}},{"type":"Feature","geometry":{"type":"Point","coordinates":[137.9055,36.3044]},"properties":{"name":"安曇野市","kind":"locality","mz":8,"pop":94871}},{"type":"Feature","geometry":{"type":"Point","coordinates":[137.96871,36.23822]},"properties":{"name":"松本市","kind":"locality","mz":7,"pop":227579}},{"type":"Feature","geometry":{"type":"Point","coordinates":[137.88009,36.17266]},"properties":{"name":"山形村","kind":"locality","mz":12,"pop":8395}},{"type":"Feature","geometry":{"type":"Point","coordinates":[137.95279,36.12495]},"properties":{"name":"塩尻市","kind":"locality","mz":8,"pop":66979}},{"type":"Feature","geometry":{"type":"Point","coordinates":[137.9821,35.9154]},"properties":{"name":"箕輪町","kind":"locality","mz":8,"pop":25241}},{"type":"Feature","geometry":{"type":"Point","coordinates":[137.98759,35.98249]},"properties":{"name":"辰野町","kind":"locality","mz":8,"pop":19770}},{"type":"Feature","geometry":{"type":"Point","coordinates":[137.97511,35.87333]},"properties":{"name":"南箕輪村","kind":"locality","mz":12,"pop":15275}},{"type":"Feature","geometry":{"type":"Point","coordinates":[137.95494,35.83044]},"properties":{"name":"伊那市","kind":"locality","mz":8,"pop":67077}},{"type":"Feature","geometry":{"type":"Point","coordinates":[137.93893,35.72969]},"properties":{"name":"駒ヶ根市","kind":"locality","mz":8,"pop":32321}},{"type":"Feature","geometry":{"type":"Point","coordinates":[137.88687,35.76003]},"properties":{"name":"宮田村","kind":"locality","mz":12,"pop":8821}},{"type":"Feature","geometry":{"type":"Point","coordinates":[137.90975,35.59751]},"properties":{"name":"松川町","kind":"locality","mz":8,"pop":13167}},{"type":"Feature","geometry":{"type":"Point","coordinates":[137.90593,35.67999]},"properties":{"name":"飯島町","kind":"locality","mz":8,"pop":9530}},{"type":"Feature","geometry":{"type":"Point","coordinates":[137.94597,35.63428]},"properties":{"name":"中川村","kind":"locality","mz":12,"pop":4850}},{"type":"Feature","geometry":{"type":"Point","coordinates":[137.87855,35.55189]},"properties":{"name":"高森町","kind":"locality","mz":8,"pop":13080}},{"type":"Feature","geometry":{"type":"Point","coordinates":[137.874,35.51361]},"properties":{"name":"喬木村","kind":"locality","mz":12,"pop":6310}},{"type":"Feature","geometry":{"type":"Point","coordinates":[137.89584,35.55108]},"properties":{"name":"豊丘村","kind":"locality","mz":12,"pop":6592}},{"type":"Feature","geometry":{"type":"Point","coordinates":[137.90786,35.32651]},"properties":{"name":"底稲","kind":"locality","mz":12,"pop":0}},{"type":"Feature","geometry":{"type":"Point","coordinates":[137.99862,34.76883]},"properties":{"name":"掛川市","kind":"locality","mz":8,"pop":114602}},{"type":"Feature","geometry":{"type":"Point","coordinates":[137.92468,34.75015]},"properties":{"name":"袋井市","kind":"locality","mz":8,"pop":86532}},{"type":"Feature","geometry":{"type":"Point","coordinates":[137.92708,34.83554]},"properties":{"name":"森町","kind":"locality","mz":8,"pop":18528}},{"type":"Feature","geometry":{"type":"Point","coordinates":[138.20698,36.8065]},"properties":{"name":"信濃町","kind":"locality","mz":8,"pop":8469}},{"type":"Feature","geometry":{"type":"Point","coordinates":[138.19475,36.64859]},"properties":{"name":"長野市","kind":"locality","mz":6,"pop":372760}},{"type":"Feature","geometry":{"type":"Point","coordinates":[138.12012,36.53371]},"properties":{"name":"千曲市","kind":"locality","mz":8,"pop":58852}},{"type":"Feature","geometry":{"type":"Point","coordinates":[138.17964,36.46171]},"properties":{"name":"坂城町","kind":"locality","mz":8,"pop":14871}},{"type":"Feature","geometry":{"type":"Point","coordinates":[138.03896,36.40754]},"properties":{"name":"筑北村","kind":"locality","mz":12,"pop":4730}},{"type":"Feature","geometry":{"type":"Point","coordinates":[138.12398,36.37271]},"properties":{"name":"青木村","kind":"locality","mz":12,"pop":4343}},{"type":"Feature","geometry":{"type":"Point","coordinates":[138.04952,36.06676]},"properties":{"name":"岡谷市","kind":"locality","mz":8,"pop":50128}},{"type":"Feature","geometry":{"type":"Point","coordinates":[138.11398,36.03917]},"properties":{"name":"諏訪市","kind":"locality","mz":8,"pop":50140}},{"type":"Feature","geometry":{"type":"Point","coordinates":[138.08016,36.0696]},"properties":{"name":"下諏訪町","kind":"locality","mz":8,"pop":20236}},{"type":"Feature","geometry":{"type":"Point","coordinates":[138.15891,35.99572]},"properties":{"name":"茅野市","kind":"locality","mz":8,"pop":55646}},{"type":"Feature","geometry":{"type":"Point","coordinates":[138.03403,35.57824]},"properties":{"name":"大鹿村","kind":"locality","mz":11,"pop":1023}},{"type":"Feature","geometry":{"type":"Point","coordinates":[138.08175,35.04686]},"properties":{"name":"川根本町","kind":"locality","mz":8,"pop":7192}},{"type":"Feature","geometry":{"type":"Point","coordinates":[138.17694,34.83614]},"properties":{"name":"島田市","kind":"locality","mz":8,"pop":96478}},{"type":"Feature","geometry":{"type":"Point","coordinates":[138.08467,34.75787]},"properties":{"name":"菊川市","kind":"locality","mz":8,"pop":46849}},{"type":"Feature","geometry":{"type":"Point","coordinates":[138.12801,34.63808]},"properties":{"name":"御前崎市","kind":"locality","mz":8,"pop":31894}},{"type":"Feature","geometry":{"type":"Point","coordinates":[138.23595,37.14787]},"properties":{"name":"上越市","kind":"locality","mz":8,"pop":188047}},{"type":"Feature","geometry":{"type":"Point","coordinates":[138.25363,37.02524]},"properties":{"name":"妙高市","kind":"locality","mz":8,"pop":30383}},{"type":"Feature","geometry":{"type":"Point","coordinates":[138.36542,36.85178]},"properties":{"name":"飯山市","kind":"locality","mz":8,"pop":19539}},{"type":"Feature","geometry":{"type":"Point","coordinates":[138.36928,36.7416]},"properties":{"name":"中野市","kind":"locality","mz":8,"pop":42338}},{"type":"Feature","geometry":{"type":"Point","coordinates":[138.23556,36.75453]},"properties":{"name":"飯綱町","kind":"locality","mz":8,"pop":11063}},{"type":"Feature","geometry":{"type":"Point","coordinates":[138.30714,36.6511]},"properties":{"name":"須坂市","kind":"locality","mz":8,"pop":51072}},{"type":"Feature","geometry":{"type":"Point","coordinates":[138.31238,36.69774]},"properties":{"name":"小布施町","kind":"locality","mz":8,"pop":10702}},{"type":"Feature","geometry":{"type":"Point","coordinates":[138.24903,36.40211]},"properties":{"name":"上田市","kind":"locality","mz":8,"pop":156980}},{"type":"Feature","geometry":{"type":"Point","coordinates":[138.33053,36.35941]},"properties":{"name":"東御市","kind":"locality","mz":8,"pop":29601}},{"type":"Feature","geometry":{"type":"Point","coordinates":[138.3159,36.27203]},"properties":{"name":"立科町","kind":"locality","mz":8,"pop":7265}},{"type":"Feature","geometry":{"type":"Point","coordinates":[138.25792,36.26985]},"properties":{"name":"長和町","kind":"locality","mz":8,"pop":6166}},{"type":"Feature","geometry":{"type":"Point","coordinates":[138.24071,35.9146]},"properties":{"name":"富士見町","kind":"locality","mz":8,"pop":14493}},{"type":"Feature","geometry":{"type":"Point","coordinates":[138.24389,35.97002]},"properties":{"name":"原村","kind":"locality","mz":12,"pop":7566}},{"type":"Feature","geometry":{"type":"Point","coordinates":[138.36293,35.41277]},"properties":{"name":"早川町","kind":"locality","mz":8,"pop":1068}},{"type":"Feature","geometry":{"type":"Point","coordinates":[138.38319,34.97519]},"properties":{"name":"静岡市","kind":"locality","mz":6,"pop":706287}},{"type":"Feature","geometry":{"type":"Point","coordinates":[138.2577,34.86741]},"properties":{"name":"藤枝市","kind":"locality","mz":8,"pop":143227}},{"type":"Feature","geometry":{"type":"Point","coordinates":[138.32285,34.86724]},"properties":{"name":"焼津市","kind":"locality","mz":8,"pop":137453}},{"type":"Feature","geometry":{"type":"Point","coordinates":[138.2247,34.73999]},"properties":{"name":"牧之原市","kind":"locality","mz":8,"pop":44493}},{"type":"Feature","geometry":{"type":"Point","coordinates":[138.25195,34.77095]},"properties":{"name":"吉田町","kind":"locality","mz":8,"pop":29093}},{"type":"Feature","geometry":{"type":"Point","coordinates":[138.55914,37.3719]},"properties":{"name":"柏崎市","kind":"locality","mz":8,"pop":92947}},{"type":"Feature","geometry":{"type":"Point","coordinates":[138.4428,36.85284]},"properties":{"name":"木島平村","kind":"locality","mz":12,"pop":4658}},{"type":"Feature","geometry":{"type":"Point","coordinates":[138.45533,36.93147]},"properties":{"name":"野沢温泉村","kind":"locality","mz":12,"pop":3479}},{"type":"Feature","geometry":{"type":"Point","coordinates":[138.41267,36.74459]},"properties":{"name":"山ノ内町","kind":"locality","mz":8,"pop":12429}},{"type":"Feature","geometry":{"type":"Point","coordinates":[138.42597,36.32726]},"properties":{"name":"小諸市","kind":"locality","mz":8,"pop":41693}},{"type":"Feature","geometry":{"type":"Point","coordinates":[138.50717,36.32259]},"properties":{"name":"御代田町","kind":"locality","mz":8,"pop":15184}},{"type":"Feature","geometry":{"type":"Point","coordinates":[138.47679,36.24881]},"properties":{"name":"佐久市","kind":"locality","mz":8,"pop":98652}},{"type":"Feature","geometry":{"type":"Point","coordinates":[138.48352,36.16036]},"properties":{"name":"佐久穂町","kind":"locality","mz":8,"pop":11186}},{"type":"Feature","geometry":{"type":"Point","coordinates":[138.48382,36.09527]},"properties":{"name":"小海町","kind":"locality","mz":8,"pop":4713}},{"type":"Feature","geometry":{"type":"Point","coordinates":[138.54884,36.02779]},"properties":{"name":"南相木村","kind":"locality","mz":11,"pop":1005}},{"type":"Feature","geometry":{"type":"Point","coordinates":[138.44048,35.97926]},"properties":{"name":"南牧村","kind":"locality","mz":12,"pop":3408}},{"type":"Feature","geometry":{"type":"Point","coordinates":[138.42357,35.7765]},"properties":{"name":"北杜市","kind":"locality","mz":8,"pop":44314}},{"type":"Feature","geometry":{"type":"Point","coordinates":[138.5164,35.66082]},"properties":{"name":"甲斐市","kind":"locality","mz":8,"pop":74705}},{"type":"Feature","geometry":{"type":"Point","coordinates":[138.46507,35.60846]},"properties":{"name":"南アルプス市","kind":"locality","mz":8,"pop":70116}},{"type":"Feature","geometry":{"type":"Point","coordinates":[138.4461,35.70896]},"properties":{"name":"韮崎市","kind":"locality","mz":8,"pop":30070}},{"type":"Feature","geometry":{"type":"Point","coordinates":[138.51751,35.59964]},"properties":{"name":"中央市","kind":"locality","mz":8,"pop":30837}},{"type":"Feature","geometry":{"type":"Point","coordinates":[138.53511,35.62793]},"properties":{"name":"昭和町","kind":"locality","mz":8,"pop":19505}},{"type":"Feature","geometry":{"type":"Point","coordinates":[138.44258,35.46805]},"properties":{"name":"身延町","kind":"locality","mz":8,"pop":12669}},{"type":"Feature","geometry":{"type":"Point","coordinates":[138.46138,35.5611]},"properties":{"name":"富士川町","kind":"locality","mz":8,"pop":15294}},{"type":"Feature","geometry":{"type":"Point","coordinates":[138.50224,35.56526]},"properties":{"name":"市川三郷町","kind":"locality","mz":8,"pop":15673}},{"type":"Feature","geometry":{"type":"Point","coordinates":[138.48593,35.24232]},"properties":{"name":"南部町","kind":"locality","mz":8,"pop":8067}},{"type":"Feature","geometry":{"type":"Point","coordinates":[138.62236,37.42232]},"properties":{"name":"刈羽村","kind":"locality","mz":12,"pop":4775}},{"type":"Feature","geometry":{"type":"Point","coordinates":[138.65244,37.01431]},"properties":{"name":"津南町","kind":"locality","mz":8,"pop":10029}},{"type":"Feature","geometry":{"type":"Point","coordinates":[138.58613,36.88175]},"properties":{"name":"栄村","kind":"locality","mz":11,"pop":1953}},{"type":"Feature","geometry":{"type":"Point","coordinates":[138.59609,36.62066]},"properties":{"name":"草津町","kind":"locality","mz":8,"pop":6518}},{"type":"Feature","geometry":{"type":"Point","coordinates":[138.64995,36.54378]},"properties":{"name":"長野原町","kind":"locality","mz":8,"pop":5536}},{"type":"Feature","geometry":{"type":"Point","coordinates":[138.59699,36.34828]},"properties":{"name":"軽井沢町","kind":"locality","mz":8,"pop":18994}},{"type":"Feature","geometry":{"type":"Point","coordinates":[138.7114,36.15849]},"properties":{"name":"南牧村","kind":"locality","mz":11,"pop":1979}},{"type":"Feature","geometry":{"type":"Point","coordinates":[138.59425,36.06152]},"properties":{"name":"北相木村","kind":"locality","mz":11,"pop":774}},{"type":"Feature","geometry":{"type":"Point","coordinates":[138.62171,35.94219]},"properties":{"name":"川上村","kind":"locality","mz":12,"pop":4607}},{"type":"Feature","geometry":{"type":"Point","coordinates":[138.57103,35.66525]},"properties":{"name":"甲府市","kind":"locality","mz":6,"pop":193125}},{"type":"Feature","geometry":{"type":"Point","coordinates":[138.63965,35.64729]},"properties":{"name":"笛吹市","kind":"locality","mz":8,"pop":68641}},{"type":"Feature","geometry":{"type":"Point","coordinates":[138.68711,35.69286]},"properties":{"name":"山梨市","kind":"locality","mz":8,"pop":33962}},{"type":"Feature","geometry":{"type":"Point","coordinates":[138.72934,35.70436]},"properties":{"name":"甲州市","kind":"locality","mz":8,"pop":29237}},{"type":"Feature","geometry":{"type":"Point","coordinates":[138.70647,35.48122]},"properties":{"name":"鳴沢村","kind":"locality","mz":12,"pop":2921}},{"type":"Feature","geometry":{"type":"Point","coordinates":[138.67639,35.16185]},"properties":{"name":"富士市","kind":"locality","mz":8,"pop":245392}},{"type":"Feature","geometry":{"type":"Point","coordinates":[138.62145,35.22213]},"properties":{"name":"富士宮市","kind":"locality","mz":8,"pop":128105}},{"type":"Feature","geometry":{"type":"Point","coordinates":[138.85122,37.44699]},"properties":{"name":"長岡市","kind":"locality","mz":6,"pop":282829}},{"type":"Feature","geometry":{"type":"Point","coordinates":[138.79513,37.31427]},"properties":{"name":"小千谷市","kind":"locality","mz":8,"pop":34096}},{"type":"Feature","geometry":{"type":"Point","coordinates":[138.75552,37.12761]},"properties":{"name":"十日町市","kind":"locality","mz":8,"pop":49820}},{"type":"Feature","geometry":{"type":"Point","coordinates":[138.87611,37.06559]},"properties":{"name":"南魚沼市","kind":"locality","mz":8,"pop":62733}},{"type":"Feature","geometry":{"type":"Point","coordinates":[138.81706,36.93387]},"properties":{"name":"湯沢町","kind":"locality","mz":8,"pop":8046}},{"type":"Feature","geometry":{"type":"Point","coordinates":[138.84092,36.5899]},"properties":{"name":"中之条町","kind":"locality","mz":8,"pop":16850}},{"type":"Feature","geometry":{"type":"Point","coordinates":[138.8205,36.57153]},"properties":{"name":"東吾妻町","kind":"locality","mz":8,"pop":14033}},{"type":"Feature","geometry":{"type":"Point","coordinates":[138.88963,36.3256]},"properties":{"name":"安中市","kind":"locality","mz":8,"pop":57097}},{"type":"Feature","geometry":{"type":"Point","coordinates":[138.88998,36.25981]},"properties":{"name":"富岡市","kind":"locality","mz":8,"pop":48799}},{"type":"Feature","geometry":{"type":"Point","coordinates":[138.78904,36.21253]},"properties":{"name":"下仁田町","kind":"locality","mz":8,"pop":7564}},{"type":"Feature","geometry":{"type":"Point","coordinates":[138.77715,36.0832]},"properties":{"name":"上野村","kind":"locality","mz":11,"pop":1230}},{"type":"Feature","geometry":{"type":"Point","coordinates":[138.80784,35.48744]},"properties":{"name":"富士吉田市","kind":"locality","mz":8,"pop":46530}},{"type":"Feature","geometry":{"type":"Point","coordinates":[138.90547,35.55161]},"properties":{"name":"都留市","kind":"locality","mz":8,"pop":31016}},{"type":"Feature","geometry":{"type":"Point","coordinates":[138.76531,35.50107]},"properties":{"name":"富士河口湖町","kind":"locality","mz":8,"pop":25329}},{"type":"Feature","geometry":{"type":"Point","coordinates":[138.84732,35.52426]},"properties":{"name":"西桂町","kind":"locality","mz":8,"pop":4342}},{"type":"Feature","geometry":{"type":"Point","coordinates":[138.84788,35.46008]},"properties":{"name":"忍野村","kind":"locality","mz":12,"pop":8968}},{"type":"Feature","geometry":{"type":"Point","coordinates":[138.86109,35.4106]},"properties":{"name":"山中湖村","kind":"locality","mz":12,"pop":5208}},{"type":"Feature","geometry":{"type":"Point","coordinates":[138.9068,35.17388]},"properties":{"name":"裾野市","kind":"locality","mz":8,"pop":50911}},{"type":"Feature","geometry":{"type":"Point","coordinates":[138.86341,35.09579]},"properties":{"name":"沼津市","kind":"locality","mz":8,"pop":195633}},{"type":"Feature","geometry":{"type":"Point","coordinates":[138.89719,35.13763]},"properties":{"name":"長泉町","kind":"locality","mz":8,"pop":42331}},{"type":"Feature","geometry":{"type":"Point","coordinates":[138.90272,35.09909]},"properties":{"name":"清水町","kind":"locality","mz":8,"pop":32118}},{"type":"Feature","geometry":{"type":"Point","coordinates":[138.77531,34.77162]},"properties":{"name":"西伊豆町","kind":"locality","mz":8,"pop":8234}},{"type":"Feature","geometry":{"type":"Point","coordinates":[138.7787,34.75279]},"properties":{"name":"松崎町","kind":"locality","mz":8,"pop":6837}},{"type":"Feature","geometry":{"type":"Point","coordinates":[138.85843,34.65114]},"properties":{"name":"南伊豆町","kind":"locality","mz":8,"pop":8524}},{"type":"Feature","geometry":{"type":"Point","coordinates":[138.96117,37.23033]},"properties":{"name":"魚沼市","kind":"locality","mz":8,"pop":34483}},{"type":"Feature","geometry":{"type":"Point","coordinates":[139.04288,36.64408]},"properties":{"name":"沼田市","kind":"locality","mz":8,"pop":47787}},{"type":"Feature","geometry":{"type":"Point","coordinates":[138.99915,36.67857]},"properties":{"name":"みなかみ町","kind":"locality","mz":8,"pop":19347}},{"type":"Feature","geometry":{"type":"Point","coordinates":[139.06589,36.63977]},"properties":{"name":"昭和村","kind":"locality","mz":12,"pop":7347}},{"type":"Feature","geometry":{"type":"Point","coordinates":[138.94336,36.62087]},"properties":{"name":"高山村","kind":"locality","mz":12,"pop":3674}},{"type":"Feature","geometry":{"type":"Point","coordinates":[138.99885,36.49035]},"properties":{"name":"渋川市","kind":"locality","mz":8,"pop":76552}},{"type":"Feature","geometry":{"type":"Point","coordinates":[139.00971,36.44738]},"properties":{"name":"吉岡町","kind":"locality","mz":8,"pop":21080}},{"type":"Feature","geometry":{"type":"Point","coordinates":[139.06327,36.38933]},"properties":{"name":"前橋市","kind":"locality","mz":7,"pop":324644}},{"type":"Feature","geometry":{"type":"Point","coordinates":[139.00327,36.32211]},"properties":{"name":"高崎市","kind":"locality","mz":8,"pop":370176}},{"type":"Feature","geometry":{"type":"Point","coordinates":[139.07451,36.25864]},"properties":{"name":"藤岡市","kind":"locality","mz":8,"pop":64679}},{"type":"Feature","geometry":{"type":"Point","coordinates":[138.92165,36.24285]},"properties":{"name":"甘楽町","kind":"locality","mz":8,"pop":13200}},{"type":"Feature","geometry":{"type":"Point","coordinates":[139.00881,36.0171]},"properties":{"name":"小鹿野町","kind":"locality","mz":8,"pop":12117}},{"type":"Feature","geometry":{"type":"Point","coordinates":[138.91671,36.116]},"properties":{"name":"神流町","kind":"locality","mz":8,"pop":1954}},{"type":"Feature","geometry":{"type":"Point","coordinates":[139.08576,35.99145]},"properties":{"name":"秩父市","kind":"locality","mz":8,"pop":63555}},{"type":"Feature","geometry":{"type":"Point","coordinates":[138.9401,35.7602]},"properties":{"name":"小菅村","kind":"locality","mz":11,"pop":726}},{"type":"Feature","geometry":{"type":"Point","coordinates":[138.91791,35.79167]},"properties":{"name":"丹波山村","kind":"locality","mz":11,"pop":563}},{"type":"Feature","geometry":{"type":"Point","coordinates":[138.94289,35.6129]},"properties":{"name":"大月市","kind":"locality","mz":8,"pop":22512}},{"type":"Feature","geometry":{"type":"Point","coordinates":[139.03357,35.52807]},"properties":{"name":"道志村","kind":"locality","mz":11,"pop":1743}},{"type":"Feature","geometry":{"type":"Point","coordinates":[138.93491,35.30875]},"properties":{"name":"御殿場市","kind":"locality","mz":8,"pop":86614}},{"type":"Feature","geometry":{"type":"Point","coordinates":[138.98722,35.36011]},"properties":{"name":"小山町","kind":"locality","mz":8,"pop":19497}},{"type":"Feature","geometry":{"type":"Point","coordinates":[139.08382,35.3606]},"properties":{"name":"山北町","kind":"locality","mz":8,"pop":10724}},{"type":"Feature","geometry":{"type":"Point","coordinates":[138.91843,35.11854]},"properties":{"name":"三島市","kind":"locality","mz":8,"pop":107783}},{"type":"Feature","geometry":{"type":"Point","coordinates":[138.9534,35.08901]},"properties":{"name":"函南町","kind":"locality","mz":8,"pop":37347}},{"type":"Feature","geometry":{"type":"Point","coordinates":[139.07181,35.09646]},"properties":{"name":"熱海市","kind":"locality","mz":8,"pop":37000}},{"type":"Feature","geometry":{"type":"Point","coordinates":[138.9289,35.02782]},"properties":{"name":"伊豆の国市","kind":"locality","mz":8,"pop":47624}},{"type":"Feature","geometry":{"type":"Point","coordinates":[138.94671,34.97646]},"properties":{"name":"伊豆市","kind":"locality","mz":8,"pop":30283}},{"type":"Feature","geometry":{"type":"Point","coordinates":[139.04121,34.77282]},"properties":{"name":"東伊豆町","kind":"locality","mz":8,"pop":12624}},{"type":"Feature","geometry":{"type":"Point","coordinates":[138.98752,34.75699]},"properties":{"name":"河津町","kind":"locality","mz":8,"pop":7303}},{"type":"Feature","geometry":{"type":"Point","coordinates":[138.94538,34.67956]},"properties":{"name":"下田市","kind":"locality","mz":8,"pop":22007}},{"type":"Feature","geometry":{"type":"Point","coordinates":[139.19682,36.31118]},"properties":{"name":"伊勢崎市","kind":"locality","mz":8,"pop":211850}},{"type":"Feature","geometry":{"type":"Point","coordinates":[139.11502,36.30444]},"properties":{"name":"玉村町","kind":"locality","mz":8,"pop":36654}},{"type":"Feature","geometry":{"type":"Point","coordinates":[139.19163,36.24358]},"properties":{"name":"本庄市","kind":"locality","mz":8,"pop":77881}},{"type":"Feature","geometry":{"type":"Point","coordinates":[139.14532,36.25165]},"properties":{"name":"上里町","kind":"locality","mz":8,"pop":30565}},{"type":"Feature","geometry":{"type":"Point","coordinates":[139.10189,36.21346]},"properties":{"name":"神川町","kind":"locality","mz":8,"pop":13730}},{"type":"Feature","geometry":{"type":"Point","coordinates":[139.18167,36.17717]},"properties":{"name":"美里町","kind":"locality","mz":8,"pop":11207}},{"type":"Feature","geometry":{"type":"Point","coordinates":[139.19279,36.11829]},"properties":{"name":"寄居町","kind":"locality","mz":8,"pop":34081}},{"type":"Feature","geometry":{"type":"Point","coordinates":[139.09863,36.07082]},"properties":{"name":"皆野町","kind":"locality","mz":8,"pop":10133}},{"type":"Feature","geometry":{"type":"Point","coordinates":[139.10966,36.11468]},"properties":{"name":"長瀞町","kind":"locality","mz":8,"pop":7324}},{"type":"Feature","geometry":{"type":"Point","coordinates":[139.1,35.98731]},"properties":{"name":"横瀬町","kind":"locality","mz":8,"pop":8519}},{"type":"Feature","geometry":{"type":"Point","coordinates":[139.25746,35.74233]},"properties":{"name":"日の出町","kind":"locality","mz":8,"pop":17448}},{"type":"Feature","geometry":{"type":"Point","coordinates":[139.09545,35.81009]},"properties":{"name":"奥多摩町","kind":"locality","mz":8,"pop":5234}},{"type":"Feature","geometry":{"type":"Point","coordinates":[139.10863,35.63009]},"properties":{"name":"上野原市","kind":"locality","mz":8,"pop":22669}},{"type":"Feature","geometry":{"type":"Point","coordinates":[139.21476,35.48164]},"properties":{"name":"清川村","kind":"locality","mz":12,"pop":3214}},{"type":"Feature","geometry":{"type":"Point","coordinates":[139.21999,35.37474]},"properties":{"name":"秦野市","kind":"locality","mz":8,"pop":167378}},{"type":"Feature","geometry":{"type":"Point","coordinates":[139.09923,35.32059]},"properties":{"name":"南足柄市","kind":"locality","mz":8,"pop":43306}},{"type":"Feature","geometry":{"type":"Point","coordinates":[139.25557,35.29951]},"properties":{"name":"二宮町","kind":"locality","mz":8,"pop":28378}},{"type":"Feature","geometry":{"type":"Point","coordinates":[139.12331,35.33603]},"properties":{"name":"開成町","kind":"locality","mz":8,"pop":17013}},{"type":"Feature","geometry":{"type":"Point","coordinates":[139.15665,35.32623]},"properties":{"name":"大井町","kind":"locality","mz":8,"pop":17033}},{"type":"Feature","geometry":{"type":"Point","coordinates":[139.1394,35.34818]},"properties":{"name":"松田町","kind":"locality","mz":8,"pop":11171}},{"type":"Feature","geometry":{"type":"Point","coordinates":[139.21879,35.33074]},"properties":{"name":"中井町","kind":"locality","mz":8,"pop":9679}},{"type":"Feature","geometry":{"type":"Point","coordinates":[139.15223,35.26454]},"properties":{"name":"小田原市","kind":"locality","mz":8,"pop":188856}},{"type":"Feature","geometry":{"type":"Point","coordinates":[139.10816,35.14792]},"properties":{"name":"湯河原町","kind":"locality","mz":8,"pop":25026}},{"type":"Feature","geometry":{"type":"Point","coordinates":[139.10687,35.23237]},"properties":{"name":"箱根町","kind":"locality","mz":8,"pop":11786}},{"type":"Feature","geometry":{"type":"Point","coordinates":[139.13704,35.15841]},"properties":{"name":"真鶴町","kind":"locality","mz":8,"pop":7333}},{"type":"Feature","geometry":{"type":"Point","coordinates":[139.10172,34.96566]},"properties":{"name":"伊東市","kind":"locality","mz":8,"pop":66988}},{"type":"Feature","geometry":{"type":"Point","coordinates":[139.31617,37.34887]},"properties":{"name":"只見町","kind":"locality","mz":8,"pop":4470}},{"type":"Feature","geometry":{"type":"Point","coordinates":[139.38891,37.02424]},"properties":{"name":"檜枝岐村","kind":"locality","mz":11,"pop":615}},{"type":"Feature","geometry":{"type":"Point","coordinates":[139.37543,36.29116]},"properties":{"name":"太田市","kind":"locality","mz":8,"pop":221403}},{"type":"Feature","geometry":{"type":"Point","coordinates":[139.33084,36.40574]},"properties":{"name":"桐生市","kind":"locality","mz":8,"pop":111554}},{"type":"Feature","geometry":{"type":"Point","coordinates":[139.28111,36.39479]},"properties":{"name":"みどり市","kind":"locality","mz":8,"pop":50680}},{"type":"Feature","geometry":{"type":"Point","coordinates":[139.38861,36.14723]},"properties":{"name":"熊谷市","kind":"locality","mz":8,"pop":198742}},{"type":"Feature","geometry":{"type":"Point","coordinates":[139.28171,36.1974]},"properties":{"name":"深谷市","kind":"locality","mz":8,"pop":142996}},{"type":"Feature","geometry":{"type":"Point","coordinates":[139.40543,36.24773]},"properties":{"name":"大泉町","kind":"locality","mz":8,"pop":41202}},{"type":"Feature","geometry":{"type":"Point","coordinates":[139.39981,36.04216]},"properties":{"name":"東松山市","kind":"locality","mz":8,"pop":92125}},{"type":"Feature","geometry":{"type":"Point","coordinates":[139.26287,36.05715]},"properties":{"name":"小川町","kind":"locality","mz":8,"pop":31178}},{"type":"Feature","geometry":{"type":"Point","coordinates":[139.32024,36.05642]},"properties":{"name":"嵐山町","kind":"locality","mz":8,"pop":18341}},{"type":"Feature","geometry":{"type":"Point","coordinates":[139.36101,36.0671]},"properties":{"name":"滑川町","kind":"locality","mz":8,"pop":18212}},{"type":"Feature","geometry":{"type":"Point","coordinates":[139.29668,36.00853]},"properties":{"name":"ときがわ町","kind":"locality","mz":8,"pop":11492}},{"type":"Feature","geometry":{"type":"Point","coordinates":[139.4029,35.95724]},"properties":{"name":"坂戸市","kind":"locality","mz":8,"pop":101679}},{"type":"Feature","geometry":{"type":"Point","coordinates":[139.32763,35.8557]},"properties":{"name":"飯能市","kind":"locality","mz":8,"pop":80361}},{"type":"Feature","geometry":{"type":"Point","coordinates":[139.39299,35.93469]},"properties":{"name":"鶴ヶ島市","kind":"locality","mz":8,"pop":70255}},{"type":"Feature","geometry":{"type":"Point","coordinates":[139.33904,35.90775]},"properties":{"name":"日高市","kind":"locality","mz":8,"pop":56224}},{"type":"Feature","geometry":{"type":"Point","coordinates":[139.31604,35.94157]},"properties":{"name":"毛呂山町","kind":"locality","mz":8,"pop":37275}},{"type":"Feature","geometry":{"type":"Point","coordinates":[139.33411,35.98151]},"properties":{"name":"鳩山町","kind":"locality","mz":8,"pop":14338}},{"type":"Feature","geometry":{"type":"Point","coordinates":[139.29415,35.9645]},"properties":{"name":"越生町","kind":"locality","mz":8,"pop":11716}},{"type":"Feature","geometry":{"type":"Point","coordinates":[139.39093,35.8358]},"properties":{"name":"入間市","kind":"locality","mz":8,"pop":147430}},{"type":"Feature","geometry":{"type":"Point","coordinates":[139.4123,35.85288]},"properties":{"name":"狭山市","kind":"locality","mz":8,"pop":152405}},{"type":"Feature","geometry":{"type":"Point","coordinates":[139.40775,35.7139]},"properties":{"name":"立川市","kind":"locality","mz":8,"pop":179575}},{"type":"Feature","geometry":{"type":"Point","coordinates":[139.27536,35.78805]},"properties":{"name":"青梅市","kind":"locality","mz":8,"pop":136581}},{"type":"Feature","geometry":{"type":"Point","coordinates":[139.42882,35.74087]},"properties":{"name":"東大和市","kind":"locality","mz":8,"pop":84876}},{"type":"Feature","geometry":{"type":"Point","coordinates":[139.2942,35.72889]},"properties":{"name":"あきる野市","kind":"locality","mz":8,"pop":80787}},{"type":"Feature","geometry":{"type":"Point","coordinates":[139.38565,35.75651]},"properties":{"name":"武蔵村山市","kind":"locality","mz":8,"pop":71419}},{"type":"Feature","geometry":{"type":"Point","coordinates":[139.30784,35.76483]},"properties":{"name":"羽村市","kind":"locality","mz":8,"pop":55434}},{"type":"Feature","geometry":{"type":"Point","coordinates":[139.32677,35.73868]},"properties":{"name":"福生市","kind":"locality","mz":8,"pop":58444}},{"type":"Feature","geometry":{"type":"Point","coordinates":[139.34574,35.78405]},"properties":{"name":"瑞穂町","kind":"locality","mz":8,"pop":33194}},{"type":"Feature","geometry":{"type":"Point","coordinates":[139.31638,35.66636]},"properties":{"name":"八王子市","kind":"locality","mz":7,"pop":555517}},{"type":"Feature","geometry":{"type":"Point","coordinates":[139.37312,35.57147]},"properties":{"name":"相模原市","kind":"locality","mz":8,"pop":725493}},{"type":"Feature","geometry":{"type":"Point","coordinates":[139.39496,35.67135]},"properties":{"name":"日野市","kind":"locality","mz":8,"pop":171309}},{"type":"Feature","geometry":{"type":"Point","coordinates":[139.35359,35.70582]},"properties":{"name":"昭島市","kind":"locality","mz":8,"pop":111482}},{"type":"Feature","geometry":{"type":"Point","coordinates":[139.43624,35.68198]},"properties":{"name":"国立市","kind":"locality","mz":8,"pop":73934}},{"type":"Feature","geometry":{"type":"Point","coordinates":[139.36252,35.44298]},"properties":{"name":"厚木市","kind":"locality","mz":8,"pop":223705}},{"type":"Feature","geometry":{"type":"Point","coordinates":[139.40771,35.4887]},"properties":{"name":"座間市","kind":"locality","mz":8,"pop":128737}},{"type":"Feature","geometry":{"type":"Point","coordinates":[139.39063,35.44641]},"properties":{"name":"海老名市","kind":"locality","mz":8,"pop":130678}},{"type":"Feature","geometry":{"type":"Point","coordinates":[139.42676,35.43725]},"properties":{"name":"綾瀬市","kind":"locality","mz":8,"pop":83913}},{"type":"Feature","geometry":{"type":"Point","coordinates":[139.2978,35.53233]},"properties":{"name":"愛川町","kind":"locality","mz":8,"pop":40343}},{"type":"Feature","geometry":{"type":"Point","coordinates":[139.34943,35.33505]},"properties":{"name":"平塚市","kind":"locality","mz":8,"pop":258422}},{"type":"Feature","geometry":{"type":"Point","coordinates":[139.40539,35.32948]},"properties":{"name":"茅ヶ崎市","kind":"locality","mz":8,"pop":242389}},{"type":"Feature","geometry":{"type":"Point","coordinates":[139.31501,35.40308]},"properties":{"name":"伊勢原市","kind":"locality","mz":8,"pop":101514}},{"type":"Feature","geometry":{"type":"Point","coordinates":[139.3838,35.37292]},"properties":{"name":"寒川町","kind":"locality","mz":8,"pop":47936}},{"type":"Feature","geometry":{"type":"Point","coordinates":[139.31132,35.3069]},"properties":{"name":"大磯町","kind":"locality","mz":8,"pop":31550}},{"type":"Feature","geometry":{"type":"Point","coordinates":[139.35552,34.75018]},"properties":{"name":"大島町","kind":"locality","mz":8,"pop":7884}},{"type":"Feature","geometry":{"type":"Point","coordinates":[139.52414,37.45377]},"properties":{"name":"金山町","kind":"locality","mz":8,"pop":2189}},{"type":"Feature","geometry":{"type":"Point","coordinates":[139.61057,37.33526]},"properties":{"name":"昭和村","kind":"locality","mz":11,"pop":1322}},{"type":"Feature","geometry":{"type":"Point","coordinates":[139.44882,36.34002]},"properties":{"name":"足利市","kind":"locality","mz":8,"pop":147699}},{"type":"Feature","geometry":{"type":"Point","coordinates":[139.57842,36.3144]},"properties":{"name":"佐野市","kind":"locality","mz":8,"pop":117521}},{"type":"Feature","geometry":{"type":"Point","coordinates":[139.4559,36.1386]},"properties":{"name":"行田市","kind":"locality","mz":8,"pop":80562}},{"type":"Feature","geometry":{"type":"Point","coordinates":[139.54216,36.24545]},"properties":{"name":"館林市","kind":"locality","mz":8,"pop":76102}},{"type":"Feature","geometry":{"type":"Point","coordinates":[139.54847,36.17239]},"properties":{"name":"羽生市","kind":"locality","mz":8,"pop":54874}},{"type":"Feature","geometry":{"type":"Point","coordinates":[139.46144,36.25296]},"properties":{"name":"邑楽町","kind":"locality","mz":8,"pop":26426}},{"type":"Feature","geometry":{"type":"Point","coordinates":[139.60078,36.22589]},"properties":{"name":"板倉町","kind":"locality","mz":8,"pop":15015}},{"type":"Feature","geometry":{"type":"Point","coordinates":[139.53444,36.21211]},"properties":{"name":"明和町","kind":"locality","mz":8,"pop":11044}},{"type":"Feature","geometry":{"type":"Point","coordinates":[139.44281,36.21862]},"properties":{"name":"千代田町","kind":"locality","mz":8,"pop":11318}},{"type":"Feature","geometry":{"type":"Point","coordinates":[139.52212,36.06575]},"properties":{"name":"鴻巣市","kind":"locality","mz":8,"pop":117883}},{"type":"Feature","geometry":{"type":"Point","coordinates":[139.60323,36.13087]},"properties":{"name":"加須市","kind":"locality","mz":8,"pop":111572}},{"type":"Feature","geometry":{"type":"Point","coordinates":[139.53117,36.02696]},"properties":{"name":"北本市","kind":"locality","mz":8,"pop":65201}},{"type":"Feature","geometry":{"type":"Point","coordinates":[139.55834,36.0029]},"properties":{"name":"桶川市","kind":"locality","mz":8,"pop":74748}},{"type":"Feature","geometry":{"type":"Point","coordinates":[139.45354,36.03983]},"properties":{"name":"吉見町","kind":"locality","mz":8,"pop":19631}},{"type":"Feature","geometry":{"type":"Point","coordinates":[139.48568,35.92513]},"properties":{"name":"川越市","kind":"locality","mz":7,"pop":350745}},{"type":"Feature","geometry":{"type":"Point","coordinates":[139.59306,35.97742]},"properties":{"name":"上尾市","kind":"locality","mz":8,"pop":226940}},{"type":"Feature","geometry":{"type":"Point","coordinates":[139.54907,35.85657]},"properties":{"name":"富士見市","kind":"locality","mz":8,"pop":108102}},{"type":"Feature","geometry":{"type":"Point","coordinates":[139.51954,35.87949]},"properties":{"name":"ふじみ野市","kind":"locality","mz":8,"pop":114218}},{"type":"Feature","geometry":{"type":"Point","coordinates":[139.4841,35.99245]},"properties":{"name":"川島町","kind":"locality","mz":8,"pop":20788}},{"type":"Feature","geometry":{"type":"Point","coordinates":[139.46968,35.79871]},"properties":{"name":"所沢市","kind":"locality","mz":8,"pop":341091}},{"type":"Feature","geometry":{"type":"Point","coordinates":[139.47659,35.72523]},"properties":{"name":"小平市","kind":"locality","mz":8,"pop":191406}},{"type":"Feature","geometry":{"type":"Point","coordinates":[139.53804,35.72613]},"properties":{"name":"西東京市","kind":"locality","mz":8,"pop":202435}},{"type":"Feature","geometry":{"type":"Point","coordinates":[139.56572,35.79314]},"properties":{"name":"新座市","kind":"locality","mz":8,"pop":164024}},{"type":"Feature","geometry":{"type":"Point","coordinates":[139.59374,35.79707]},"properties":{"name":"朝霞市","kind":"locality","mz":8,"pop":141083}},{"type":"Feature","geometry":{"type":"Point","coordinates":[139.48452,35.76894]},"properties":{"name":"東村山市","kind":"locality","mz":8,"pop":150116}},{"type":"Feature","geometry":{"type":"Point","coordinates":[139.56598,35.71774]},"properties":{"name":"武蔵野市","kind":"locality","mz":8,"pop":140162}},{"type":"Feature","geometry":{"type":"Point","coordinates":[139.51907,35.75254]},"properties":{"name":"東久留米市","kind":"locality","mz":8,"pop":116566}},{"type":"Feature","geometry":{"type":"Point","coordinates":[139.60589,35.78172]},"properties":{"name":"和光市","kind":"locality","mz":8,"pop":82017}},{"type":"Feature","geometry":{"type":"Point","coordinates":[139.53126,35.78548]},"properties":{"name":"清瀬市","kind":"locality","mz":8,"pop":75072}},{"type":"Feature","geometry":{"type":"Point","coordinates":[139.57958,35.8374]},"properties":{"name":"志木市","kind":"locality","mz":8,"pop":72676}},{"type":"Feature","geometry":{"type":"Point","coordinates":[139.5265,35.82808]},"properties":{"name":"三芳町","kind":"locality","mz":8,"pop":38456}},{"type":"Feature","geometry":{"type":"Point","coordinates":[139.4774,35.66936]},"properties":{"name":"府中市","kind":"locality","mz":8,"pop":261991}},{"type":"Feature","geometry":{"type":"Point","coordinates":[139.5407,35.6506]},"properties":{"name":"調布市","kind":"locality","mz":8,"pop":232573}},{"type":"Feature","geometry":{"type":"Point","coordinates":[139.55924,35.68341]},"properties":{"name":"三鷹市","kind":"locality","mz":8,"pop":189577}},{"type":"Feature","geometry":{"type":"Point","coordinates":[139.44612,35.63724]},"properties":{"name":"多摩市","kind":"locality","mz":8,"pop":144348}},{"type":"Feature","geometry":{"type":"Point","coordinates":[139.45423,35.70969]},"properties":{"name":"国分寺市","kind":"locality","mz":8,"pop":123290}},{"type":"Feature","geometry":{"type":"Point","coordinates":[139.51066,35.70411]},"properties":{"name":"小金井市","kind":"locality","mz":8,"pop":122977}},{"type":"Feature","geometry":{"type":"Point","coordinates":[139.50469,35.63798]},"properties":{"name":"稲城市","kind":"locality","mz":8,"pop":93151}},{"type":"Feature","geometry":{"type":"Point","coordinates":[139.57872,35.63477]},"properties":{"name":"狛江市","kind":"locality","mz":8,"pop":76234}},{"type":"Feature","geometry":{"type":"Point","coordinates":[139.43869,35.54668]},"properties":{"name":"町田市","kind":"locality","mz":8,"pop":433720}},{"type":"Feature","geometry":{"type":"Point","coordinates":[139.45787,35.48748]},"properties":{"name":"大和市","kind":"locality","mz":8,"pop":232922}},{"type":"Feature","geometry":{"type":"Point","coordinates":[139.49092,35.33886]},"properties":{"name":"藤沢市","kind":"locality","mz":8,"pop":436905}},{"type":"Feature","geometry":{"type":"Point","coordinates":[139.54697,35.31929]},"properties":{"name":"鎌倉市","kind":"locality","mz":8,"pop":172710}},{"type":"Feature","geometry":{"type":"Point","coordinates":[139.5804,35.29555]},"properties":{"name":"逗子市","kind":"locality","mz":8,"pop":57425}},{"type":"Feature","geometry":{"type":"Point","coordinates":[139.58606,35.27194]},"properties":{"name":"葉山町","kind":"locality","mz":8,"pop":32096}},{"type":"Feature","geometry":{"type":"Point","coordinates":[139.6443,37.47023]},"properties":{"name":"三島町","kind":"locality","mz":8,"pop":1668}},{"type":"Feature","geometry":{"type":"Point","coordinates":[139.77386,37.20032]},"properties":{"name":"南会津町","kind":"locality","mz":8,"pop":16264}},{"type":"Feature","geometry":{"type":"Point","coordinates":[139.69816,36.71976]},"properties":{"name":"日光市","kind":"locality","mz":8,"pop":83386}},{"type":"Feature","geometry":{"type":"Point","coordinates":[139.74579,36.56822]},"properties":{"name":"鹿沼市","kind":"locality","mz":8,"pop":97145}},{"type":"Feature","geometry":{"type":"Point","coordinates":[139.73361,36.3818]},"properties":{"name":"栃木市","kind":"locality","mz":8,"pop":157645}},{"type":"Feature","geometry":{"type":"Point","coordinates":[139.75536,36.17803]},"properties":{"name":"古河市","kind":"locality","mz":8,"pop":140150}},{"type":"Feature","geometry":{"type":"Point","coordinates":[139.74077,36.23313]},"properties":{"name":"野木町","kind":"locality","mz":8,"pop":25292}},{"type":"Feature","geometry":{"type":"Point","coordinates":[139.67786,36.23964]},"properties":{"name":"渡良瀬遊水地","kind":"locality","mz":8,"pop":0}},{"type":"Feature","geometry":{"type":"Point","coordinates":[139.66713,36.0618]},"properties":{"name":"久喜市","kind":"locality","mz":8,"pop":151598}},{"type":"Feature","geometry":{"type":"Point","coordinates":[139.67709,36.01863]},"properties":{"name":"白岡市","kind":"locality","mz":8,"pop":52214}},{"type":"Feature","geometry":{"type":"Point","coordinates":[139.72541,36.07789]},"properties":{"name":"幸手市","kind":"locality","mz":8,"pop":50066}},{"type":"Feature","geometry":{"type":"Point","coordinates":[139.62409,36.00013]},"properties":{"name":"伊奈町","kind":"locality","mz":8,"pop":44442}},{"type":"Feature","geometry":{"type":"Point","coordinates":[139.73674,36.02585]},"properties":{"name":"杉戸町","kind":"locality","mz":8,"pop":45495}},{"type":"Feature","geometry":{"type":"Point","coordinates":[139.72262,36.02272]},"properties":{"name":"宮代町","kind":"locality","mz":8,"pop":33930}},{"type":"Feature","geometry":{"type":"Point","coordinates":[139.74579,36.11475]},"properties":{"name":"五霞町","kind":"locality","mz":8,"pop":8786}},{"type":"Feature","geometry":{"type":"Point","coordinates":[139.64559,35.86161]},"properties":{"name":"さいたま市","kind":"locality","mz":8,"pop":1182115}},{"type":"Feature","geometry":{"type":"Point","coordinates":[139.75202,35.97578]},"properties":{"name":"春日部市","kind":"locality","mz":8,"pop":232709}},{"type":"Feature","geometry":{"type":"Point","coordinates":[139.66327,35.99408]},"properties":{"name":"蓮田市","kind":"locality","mz":8,"pop":61499}},{"type":"Feature","geometry":{"type":"Point","coordinates":[139.65215,35.73578]},"properties":{"name":"練馬区","kind":"locality","mz":8,"pop":733150}},{"type":"Feature","geometry":{"type":"Point","coordinates":[139.7088,35.75128]},"properties":{"name":"板橋区","kind":"locality","mz":8,"pop":575432}},{"type":"Feature","geometry":{"type":"Point","coordinates":[139.72412,35.80783]},"properties":{"name":"川口市","kind":"locality","mz":8,"pop":578112}},{"type":"Feature","geometry":{"type":"Point","coordinates":[139.73382,35.75289]},"properties":{"name":"北区","kind":"locality","mz":8,"pop":349573}},{"type":"Feature","geometry":{"type":"Point","coordinates":[139.71665,35.72592]},"properties":{"name":"豊島区","kind":"locality","mz":8,"pop":298562}},{"type":"Feature","geometry":{"type":"Point","coordinates":[139.78133,35.73753]},"properties":{"name":"荒川区","kind":"locality","mz":8,"pop":216232}},{"type":"Feature","geometry":{"type":"Point","coordinates":[139.78008,35.71258]},"properties":{"name":"台東区","kind":"locality","mz":8,"pop":203893}},{"type":"Feature","geometry":{"type":"Point","coordinates":[139.6779,35.8176]},"properties":{"name":"戸田市","kind":"locality","mz":8,"pop":136150}},{"type":"Feature","geometry":{"type":"Point","coordinates":[139.67915,35.82637]},"properties":{"name":"蕨市","kind":"locality","mz":8,"pop":72260}},{"type":"Feature","geometry":{"type":"Point","coordinates":[139.7639,35.67686]},"properties":{"name":"東京都","kind":"locality","mz":2,"pop":13613660}},{"type":"Feature","geometry":{"type":"Point","coordinates":[139.65254,35.6469]},"properties":{"name":"世田谷区","kind":"locality","mz":8,"pop":943664}},{"type":"Feature","geometry":{"type":"Point","coordinates":[139.63627,35.69948]},"properties":{"name":"杉並区","kind":"locality","mz":8,"pop":540180}},{"type":"Feature","geometry":{"type":"Point","coordinates":[139.73022,35.6092]},"properties":{"name":"品川区","kind":"locality","mz":8,"pop":422488}},{"type":"Feature","geometry":{"type":"Point","coordinates":[139.66292,35.70861]},"properties":{"name":"中野区","kind":"locality","mz":8,"pop":336639}},{"type":"Feature","geometry":{"type":"Point","coordinates":[139.70365,35.69376]},"properties":{"name":"新宿区","kind":"locality","mz":8,"pop":349385}},{"type":"Feature","geometry":{"type":"Point","coordinates":[139.7515,35.65799]},"properties":{"name":"港区","kind":"locality","mz":8,"pop":254699}},{"type":"Feature","geometry":{"type":"Point","coordinates":[139.69854,35.64084]},"properties":{"name":"目黒区","kind":"locality","mz":8,"pop":288088}},{"type":"Feature","geometry":{"type":"Point","coordinates":[139.69769,35.66371]},"properties":{"name":"渋谷区","kind":"locality","mz":8,"pop":230707}},{"type":"Feature","geometry":{"type":"Point","coordinates":[139.75232,35.70802]},"properties":{"name":"文京区","kind":"locality","mz":8,"pop":227902}},{"type":"Feature","geometry":{"type":"Point","coordinates":[139.77197,35.67065]},"properties":{"name":"中央区","kind":"locality","mz":8,"pop":158508}},{"type":"Feature","geometry":{"type":"Point","coordinates":[139.75352,35.69404]},"properties":{"name":"千代田区","kind":"locality","mz":8,"pop":46397}},{"type":"Feature","geometry":{"type":"Point","coordinates":[139.63439,35.45032]},"properties":{"name":"横浜市","kind":"locality","mz":6,"pop":3777491}},{"type":"Feature","geometry":{"type":"Point","coordinates":[139.70378,35.53065]},"properties":{"name":"川崎市","kind":"locality","mz":7,"pop":1538262}},{"type":"Feature","geometry":{"type":"Point","coordinates":[139.71584,35.56121]},"properties":{"name":"大田区","kind":"locality","mz":8,"pop":748081}},{"type":"Feature","geometry":{"type":"Point","coordinates":[139.67198,35.28147]},"properties":{"name":"横須賀市","kind":"locality","mz":8,"pop":388078}},{"type":"Feature","geometry":{"type":"Point","coordinates":[139.62074,35.1442]},"properties":{"name":"三浦市","kind":"locality","mz":8,"pop":45289}},{"type":"Feature","geometry":{"type":"Point","coordinates":[139.84102,37.4599]},"properties":{"name":"会津美里町","kind":"locality","mz":8,"pop":20913}},{"type":"Feature","geometry":{"type":"Point","coordinates":[139.87248,37.25564]},"properties":{"name":"下郷町","kind":"locality","mz":8,"pop":5800}},{"type":"Feature","geometry":{"type":"Point","coordinates":[139.92363,36.80667]},"properties":{"name":"矢板市","kind":"locality","mz":8,"pop":32651}},{"type":"Feature","geometry":{"type":"Point","coordinates":[139.85124,36.77863]},"properties":{"name":"塩谷町","kind":"locality","mz":8,"pop":11495}},{"type":"Feature","geometry":{"type":"Point","coordinates":[139.88286,36.55498]},"properties":{"name":"宇都宮市","kind":"locality","mz":7,"pop":518594}},{"type":"Feature","geometry":{"type":"Point","coordinates":[139.80467,36.42736]},"properties":{"name":"壬生町","kind":"locality","mz":8,"pop":39951}},{"type":"Feature","geometry":{"type":"Point","coordinates":[139.91059,36.43906]},"properties":{"name":"上三川町","kind":"locality","mz":8,"pop":31046}},{"type":"Feature","geometry":{"type":"Point","coordinates":[139.80068,36.31554]},"properties":{"name":"小山市","kind":"locality","mz":8,"pop":167535}},{"type":"Feature","geometry":{"type":"Point","coordinates":[139.85158,36.39434]},"properties":{"name":"下野市","kind":"locality","mz":8,"pop":59431}},{"type":"Feature","geometry":{"type":"Point","coordinates":[139.87716,36.3053]},"properties":{"name":"結城市","kind":"locality","mz":8,"pop":51332}},{"type":"Feature","geometry":{"type":"Point","coordinates":[139.89115,36.18122]},"properties":{"name":"八千代町","kind":"locality","mz":8,"pop":22021}},{"type":"Feature","geometry":{"type":"Point","coordinates":[139.88965,36.04847]},"properties":{"name":"坂東市","kind":"locality","mz":8,"pop":52265}},{"type":"Feature","geometry":{"type":"Point","coordinates":[139.79519,36.10837]},"properties":{"name":"境町","kind":"locality","mz":8,"pop":24517}},{"type":"Feature","geometry":{"type":"Point","coordinates":[139.7915,35.89128]},"properties":{"name":"越谷市","kind":"locality","mz":8,"pop":342486}},{"type":"Feature","geometry":{"type":"Point","coordinates":[139.90278,35.8556]},"properties":{"name":"流山市","kind":"locality","mz":8,"pop":186863}},{"type":"Feature","geometry":{"type":"Point","coordinates":[139.87488,35.95491]},"properties":{"name":"野田市","kind":"locality","mz":8,"pop":152638}},{"type":"Feature","geometry":{"type":"Point","coordinates":[139.8545,35.89628]},"properties":{"name":"吉川市","kind":"locality","mz":8,"pop":71979}},{"type":"Feature","geometry":{"type":"Point","coordinates":[139.81587,35.92621]},"properties":{"name":"松伏町","kind":"locality","mz":8,"pop":30061}},{"type":"Feature","geometry":{"type":"Point","coordinates":[139.8045,35.77462]},"properties":{"name":"足立区","kind":"locality","mz":8,"pop":695043}},{"type":"Feature","geometry":{"type":"Point","coordinates":[139.84733,35.74338]},"properties":{"name":"葛飾区","kind":"locality","mz":8,"pop":451483}},{"type":"Feature","geometry":{"type":"Point","coordinates":[139.90492,35.78725]},"properties":{"name":"松戸市","kind":"locality","mz":8,"pop":483480}},{"type":"Feature","geometry":{"type":"Point","coordinates":[139.93209,35.7216]},"properties":{"name":"市川市","kind":"locality","mz":8,"pop":496676}},{"type":"Feature","geometry":{"type":"Point","coordinates":[139.80618,35.82623]},"properties":{"name":"草加市","kind":"locality","mz":8,"pop":249455}},{"type":"Feature","geometry":{"type":"Point","coordinates":[139.87269,35.82898]},"properties":{"name":"三郷市","kind":"locality","mz":8,"pop":139903}},{"type":"Feature","geometry":{"type":"Point","coordinates":[139.83871,35.82265]},"properties":{"name":"八潮市","kind":"locality","mz":8,"pop":90017}},{"type":"Feature","geometry":{"type":"Point","coordinates":[139.86866,35.70662]},"properties":{"name":"江戸川区","kind":"locality","mz":8,"pop":691417}},{"type":"Feature","geometry":{"type":"Point","coordinates":[139.81695,35.67278]},"properties":{"name":"江東区","kind":"locality","mz":8,"pop":524310}},{"type":"Feature","geometry":{"type":"Point","coordinates":[139.80175,35.71042]},"properties":{"name":"墨田区","kind":"locality","mz":8,"pop":272085}},{"type":"Feature","geometry":{"type":"Point","coordinates":[139.90256,35.65391]},"properties":{"name":"浦安市","kind":"locality","mz":8,"pop":164024}},{"type":"Feature","geometry":{"type":"Point","coordinates":[139.95445,35.42966]},"properties":{"name":"袖ケ浦市","kind":"locality","mz":8,"pop":61639}},{"type":"Feature","geometry":{"type":"Point","coordinates":[139.92475,35.38107]},"properties":{"name":"木更津市","kind":"locality","mz":8,"pop":135461}},{"type":"Feature","geometry":{"type":"Point","coordinates":[139.90256,35.33025]},"properties":{"name":"君津市","kind":"locality","mz":8,"pop":84221}},{"type":"Feature","geometry":{"type":"Point","coordinates":[139.85703,35.30392]},"properties":{"name":"富津市","kind":"locality","mz":8,"pop":44449}},{"type":"Feature","geometry":{"type":"Point","coordinates":[139.86999,34.99654]},"properties":{"name":"館山市","kind":"locality","mz":8,"pop":46471}},{"type":"Feature","geometry":{"type":"Point","coordinates":[139.83716,35.03875]},"properties":{"name":"南房総市","kind":"locality","mz":8,"pop":37765}},{"type":"Feature","geometry":{"type":"Point","coordinates":[139.83583,35.1111]},"properties":{"name":"鋸南町","kind":"locality","mz":8,"pop":8022}},{"type":"Feature","geometry":{"type":"Point","coordinates":[140.12087,37.01982]},"properties":{"name":"那須町","kind":"locality","mz":8,"pop":24919}},{"type":"Feature","geometry":{"type":"Point","coordinates":[140.04672,36.96217]},"properties":{"name":"那須塩原市","kind":"locality","mz":8,"pop":115210}},{"type":"Feature","geometry":{"type":"Point","coordinates":[140.01539,36.87104]},"properties":{"name":"大田原市","kind":"locality","mz":8,"pop":72087}},{"type":"Feature","geometry":{"type":"Point","coordinates":[139.96689,36.68528]},"properties":{"name":"さくら市","kind":"locality","mz":8,"pop":44901}},{"type":"Feature","geometry":{"type":"Point","coordinates":[139.98693,36.63058]},"properties":{"name":"高根沢町","kind":"locality","mz":8,"pop":29639}},{"type":"Feature","geometry":{"type":"Point","coordinates":[140.01251,36.44079]},"properties":{"name":"真岡市","kind":"locality","mz":8,"pop":79548}},{"type":"Feature","geometry":{"type":"Point","coordinates":[140.09358,36.46734]},"properties":{"name":"益子町","kind":"locality","mz":8,"pop":23281}},{"type":"Feature","geometry":{"type":"Point","coordinates":[140.05727,36.54971]},"properties":{"name":"芳賀町","kind":"locality","mz":8,"pop":15189}},{"type":"Feature","geometry":{"type":"Point","coordinates":[140.10216,36.54326]},"properties":{"name":"市貝町","kind":"locality","mz":8,"pop":11720}},{"type":"Feature","geometry":{"type":"Point","coordinates":[139.97908,36.3052]},"properties":{"name":"筑西市","kind":"locality","mz":8,"pop":102242}},{"type":"Feature","geometry":{"type":"Point","coordinates":[140.09036,36.32723]},"properties":{"name":"桜川市","kind":"locality","mz":8,"pop":41278}},{"type":"Feature","geometry":{"type":"Point","coordinates":[139.96844,36.18392]},"properties":{"name":"下妻市","kind":"locality","mz":8,"pop":42635}},{"type":"Feature","geometry":{"type":"Point","coordinates":[140.07727,36.08334]},"properties":{"name":"つくば市","kind":"locality","mz":8,"pop":234455}},{"type":"Feature","geometry":{"type":"Point","coordinates":[139.99389,36.02356]},"properties":{"name":"常総市","kind":"locality","mz":8,"pop":60834}},{"type":"Feature","geometry":{"type":"Point","coordinates":[139.97569,35.86763]},"properties":{"name":"柏市","kind":"locality","mz":8,"pop":422385}},{"type":"Feature","geometry":{"type":"Point","coordinates":[140.02805,35.86401]},"properties":{"name":"我孫子市","kind":"locality","mz":8,"pop":130977}},{"type":"Feature","geometry":{"type":"Point","coordinates":[140.05002,35.91119]},"properties":{"name":"取手市","kind":"locality","mz":8,"pop":104524}},{"type":"Feature","geometry":{"type":"Point","coordinates":[139.97552,35.95102]},"properties":{"name":"守谷市","kind":"locality","mz":8,"pop":68421}},{"type":"Feature","geometry":{"type":"Point","coordinates":[140.03775,35.96276]},"properties":{"name":"つくばみらい市","kind":"locality","mz":8,"pop":50615}},{"type":"Feature","geometry":{"type":"Point","coordinates":[140.1386,35.85754]},"properties":{"name":"利根町","kind":"locality","mz":8,"pop":16313}},{"type":"Feature","geometry":{"type":"Point","coordinates":[140.0995,35.72255]},"properties":{"name":"八千代市","kind":"locality","mz":8,"pop":199498}},{"type":"Feature","geometry":{"type":"Point","coordinates":[140.00071,35.77663]},"properties":{"name":"鎌ケ谷市","kind":"locality","mz":8,"pop":109932}},{"type":"Feature","geometry":{"type":"Point","coordinates":[140.05607,35.79147]},"properties":{"name":"白井市","kind":"locality","mz":8,"pop":62374}},{"type":"Feature","geometry":{"type":"Point","coordinates":[140.10628,35.60707]},"properties":{"name":"千葉市","kind":"locality","mz":8,"pop":974951}},{"type":"Feature","geometry":{"type":"Point","coordinates":[139.98256,35.6946]},"properties":{"name":"船橋市","kind":"locality","mz":8,"pop":633263}},{"type":"Feature","geometry":{"type":"Point","coordinates":[140.02719,35.68167]},"properties":{"name":"習志野市","kind":"locality","mz":8,"pop":176197}},{"type":"Feature","geometry":{"type":"Point","coordinates":[140.11568,35.49778]},"properties":{"name":"市原市","kind":"locality","mz":8,"pop":269524}},{"type":"Feature","geometry":{"type":"Point","coordinates":[140.09869,35.11405]},"properties":{"name":"鴨川市","kind":"locality","mz":8,"pop":33932}},{"type":"Feature","geometry":{"type":"Point","coordinates":[140.21074,37.12635]},"properties":{"name":"白河市","kind":"locality","mz":8,"pop":59491}},{"type":"Feature","geometry":{"type":"Point","coordinates":[140.15533,37.14167]},"properties":{"name":"西郷村","kind":"locality","mz":12,"pop":20322}},{"type":"Feature","geometry":{"type":"Point","coordinates":[140.24709,37.2554]},"properties":{"name":"天栄村","kind":"locality","mz":12,"pop":5611}},{"type":"Feature","geometry":{"type":"Point","coordinates":[140.30348,37.15375]},"properties":{"name":"泉崎村","kind":"locality","mz":12,"pop":6495}},{"type":"Feature","geometry":{"type":"Point","coordinates":[140.1725,36.73562]},"properties":{"name":"那珂川町","kind":"locality","mz":8,"pop":16964}},{"type":"Feature","geometry":{"type":"Point","coordinates":[140.15134,36.65747]},"properties":{"name":"那須烏山市","kind":"locality","mz":8,"pop":26211}},{"type":"Feature","geometry":{"type":"Point","coordinates":[140.18739,36.53216]},"properties":{"name":"茂木町","kind":"locality","mz":8,"pop":13188}},{"type":"Feature","geometry":{"type":"Point","coordinates":[140.30421,36.34524]},"properties":{"name":"笠間市","kind":"locality","mz":8,"pop":75698}},{"type":"Feature","geometry":{"type":"Point","coordinates":[140.28841,36.19085]},"properties":{"name":"石岡市","kind":"locality","mz":8,"pop":74184}},{"type":"Feature","geometry":{"type":"Point","coordinates":[140.23533,36.1552]},"properties":{"name":"かすみがうら市","kind":"locality","mz":8,"pop":40087}},{"type":"Feature","geometry":{"type":"Point","coordinates":[140.2046,36.07862]},"properties":{"name":"土浦市","kind":"locality","mz":8,"pop":139261}},{"type":"Feature","geometry":{"type":"Point","coordinates":[140.21361,36.03081]},"properties":{"name":"阿見町","kind":"locality","mz":8,"pop":47535}},{"type":"Feature","geometry":{"type":"Point","coordinates":[140.14958,35.97905]},"properties":{"name":"牛久市","kind":"locality","mz":8,"pop":84317}},{"type":"Feature","geometry":{"type":"Point","coordinates":[140.1819,35.9113]},"properties":{"name":"龍ケ崎市","kind":"locality","mz":8,"pop":76420}},{"type":"Feature","geometry":{"type":"Point","coordinates":[140.30339,35.97207]},"properties":{"name":"稲敷市","kind":"locality","mz":8,"pop":41392}},{"type":"Feature","geometry":{"type":"Point","coordinates":[140.24464,35.88456]},"properties":{"name":"河内町","kind":"locality","mz":8,"pop":9168}},{"type":"Feature","geometry":{"type":"Point","coordinates":[140.224,35.72345]},"properties":{"name":"佐倉市","kind":"locality","mz":8,"pop":171927}},{"type":"Feature","geometry":{"type":"Point","coordinates":[140.14529,35.83225]},"properties":{"name":"印西市","kind":"locality","mz":8,"pop":96640}},{"type":"Feature","geometry":{"type":"Point","coordinates":[140.24413,35.84106]},"properties":{"name":"栄町","kind":"locality","mz":8,"pop":21228}},{"type":"Feature","geometry":{"type":"Point","coordinates":[140.26996,35.7237]},"properties":{"name":"酒々井町","kind":"locality","mz":8,"pop":20955}},{"type":"Feature","geometry":{"type":"Point","coordinates":[140.16795,35.66964]},"properties":{"name":"四街道市","kind":"locality","mz":8,"pop":93576}},{"type":"Feature","geometry":{"type":"Point","coordinates":[140.28807,35.4285]},"properties":{"name":"茂原市","kind":"locality","mz":8,"pop":88824}},{"type":"Feature","geometry":{"type":"Point","coordinates":[140.22713,35.43109]},"properties":{"name":"長柄町","kind":"locality","mz":8,"pop":7337}},{"type":"Feature","geometry":{"type":"Point","coordinates":[140.24524,35.28479]},"properties":{"name":"大多喜町","kind":"locality","mz":8,"pop":9843}},{"type":"Feature","geometry":{"type":"Point","coordinates":[140.23726,35.38604]},"properties":{"name":"長南町","kind":"locality","mz":8,"pop":8206}},{"type":"Feature","geometry":{"type":"Point","coordinates":[140.33339,37.40494]},"properties":{"name":"郡山市","kind":"locality","mz":7,"pop":327692}},{"type":"Feature","geometry":{"type":"Point","coordinates":[140.37292,37.28679]},"properties":{"name":"須賀川市","kind":"locality","mz":8,"pop":74992}},{"type":"Feature","geometry":{"type":"Point","coordinates":[140.49261,37.44093]},"properties":{"name":"三春町","kind":"locality","mz":8,"pop":18304}},{"type":"Feature","geometry":{"type":"Point","coordinates":[140.33875,37.20128]},"properties":{"name":"矢吹町","kind":"locality","mz":8,"pop":17370}},{"type":"Feature","geometry":{"type":"Point","coordinates":[140.34365,37.25271]},"properties":{"name":"鏡石町","kind":"locality","mz":8,"pop":12486}},{"type":"Feature","geometry":{"type":"Point","coordinates":[140.4469,37.15703]},"properties":{"name":"石川町","kind":"locality","mz":8,"pop":15880}},{"type":"Feature","geometry":{"type":"Point","coordinates":[140.35086,37.14944]},"properties":{"name":"中島村","kind":"locality","mz":12,"pop":5001}},{"type":"Feature","geometry":{"type":"Point","coordinates":[140.37952,37.0299]},"properties":{"name":"棚倉町","kind":"locality","mz":8,"pop":14295}},{"type":"Feature","geometry":{"type":"Point","coordinates":[140.41278,37.081]},"properties":{"name":"浅川町","kind":"locality","mz":8,"pop":6577}},{"type":"Feature","geometry":{"type":"Point","coordinates":[140.40999,36.95696]},"properties":{"name":"塙町","kind":"locality","mz":8,"pop":9157}},{"type":"Feature","geometry":{"type":"Point","coordinates":[140.42523,36.87183]},"properties":{"name":"矢祭町","kind":"locality","mz":8,"pop":5950}},{"type":"Feature","geometry":{"type":"Point","coordinates":[140.36395,36.76478]},"properties":{"name":"大子町","kind":"locality","mz":8,"pop":18053}},{"type":"Feature","geometry":{"type":"Point","coordinates":[140.48716,36.45722]},"properties":{"name":"那珂市","kind":"locality","mz":8,"pop":53897}},{"type":"Feature","geometry":{"type":"Point","coordinates":[140.41162,36.54292]},"properties":{"name":"常陸大宮市","kind":"locality","mz":8,"pop":41342}},{"type":"Feature","geometry":{"type":"Point","coordinates":[140.37605,36.47969]},"properties":{"name":"城里町","kind":"locality","mz":8,"pop":19800}},{"type":"Feature","geometry":{"type":"Point","coordinates":[140.47317,36.36591]},"properties":{"name":"水戸市","kind":"locality","mz":6,"pop":270775}},{"type":"Feature","geometry":{"type":"Point","coordinates":[140.42411,36.28711]},"properties":{"name":"茨城町","kind":"locality","mz":8,"pop":32921}},{"type":"Feature","geometry":{"type":"Point","coordinates":[140.35236,36.23898]},"properties":{"name":"小美玉市","kind":"locality","mz":8,"pop":50180}},{"type":"Feature","geometry":{"type":"Point","coordinates":[140.48887,35.9902]},"properties":{"name":"行方市","kind":"locality","mz":8,"pop":33914}},{"type":"Feature","geometry":{"type":"Point","coordinates":[140.4051,35.9017]},"properties":{"name":"神崎町","kind":"locality","mz":8,"pop":6133}},{"type":"Feature","geometry":{"type":"Point","coordinates":[140.31833,35.77677]},"properties":{"name":"成田市","kind":"locality","mz":8,"pop":131190}},{"type":"Feature","geometry":{"type":"Point","coordinates":[140.34305,35.7269]},"properties":{"name":"富里市","kind":"locality","mz":8,"pop":49636}},{"type":"Feature","geometry":{"type":"Point","coordinates":[140.46772,35.73575]},"properties":{"name":"多古町","kind":"locality","mz":8,"pop":14724}},{"type":"Feature","geometry":{"type":"Point","coordinates":[140.31785,35.66587]},"properties":{"name":"八街市","kind":"locality","mz":8,"pop":67455}},{"type":"Feature","geometry":{"type":"Point","coordinates":[140.41343,35.60288]},"properties":{"name":"山武市","kind":"locality","mz":8,"pop":48444}},{"type":"Feature","geometry":{"type":"Point","coordinates":[140.41416,35.6931]},"properties":{"name":"芝山町","kind":"locality","mz":8,"pop":7431}},{"type":"Feature","geometry":{"type":"Point","coordinates":[140.36626,35.56002]},"properties":{"name":"東金市","kind":"locality","mz":8,"pop":58219}},{"type":"Feature","geometry":{"type":"Point","coordinates":[140.3209,35.52161]},"properties":{"name":"大網白里市","kind":"locality","mz":8,"pop":48129}},{"type":"Feature","geometry":{"type":"Point","coordinates":[140.44021,35.53509]},"properties":{"name":"九十九里町","kind":"locality","mz":8,"pop":16510}},{"type":"Feature","geometry":{"type":"Point","coordinates":[140.37425,35.4542]},"properties":{"name":"白子町","kind":"locality","mz":8,"pop":11149}},{"type":"Feature","geometry":{"type":"Point","coordinates":[140.36867,35.37281]},"properties":{"name":"一宮町","kind":"locality","mz":8,"pop":11767}},{"type":"Feature","geometry":{"type":"Point","coordinates":[140.31949,35.36109]},"properties":{"name":"睦沢町","kind":"locality","mz":8,"pop":7222}},{"type":"Feature","geometry":{"type":"Point","coordinates":[140.38493,35.25393]},"properties":{"name":"いすみ市","kind":"locality","mz":8,"pop":37442}},{"type":"Feature","geometry":{"type":"Point","coordinates":[140.32073,35.1522]},"properties":{"name":"勝浦市","kind":"locality","mz":8,"pop":17808}},{"type":"Feature","geometry":{"type":"Point","coordinates":[140.3488,35.19166]},"properties":{"name":"御宿町","kind":"locality","mz":8,"pop":7315}},{"type":"Feature","geometry":{"type":"Point","coordinates":[140.57646,37.44055]},"properties":{"name":"田村市","kind":"locality","mz":8,"pop":35169}},{"type":"Feature","geometry":{"type":"Point","coordinates":[140.62624,37.28682]},"properties":{"name":"小野町","kind":"locality","mz":8,"pop":10475}},{"type":"Feature","geometry":{"type":"Point","coordinates":[140.57569,37.22196]},"properties":{"name":"平田村","kind":"locality","mz":12,"pop":6505}},{"type":"Feature","geometry":{"type":"Point","coordinates":[140.55569,37.08921]},"properties":{"name":"古殿町","kind":"locality","mz":8,"pop":5373}},{"type":"Feature","geometry":{"type":"Point","coordinates":[140.65045,36.59913]},"properties":{"name":"日立市","kind":"locality","mz":8,"pop":189958}},{"type":"Feature","geometry":{"type":"Point","coordinates":[140.53084,36.5373]},"properties":{"name":"常陸太田市","kind":"locality","mz":8,"pop":50728}},{"type":"Feature","geometry":{"type":"Point","coordinates":[140.56621,36.47265]},"properties":{"name":"東海村","kind":"locality","mz":12,"pop":37713}},{"type":"Feature","geometry":{"type":"Point","coordinates":[140.53535,36.39614]},"properties":{"name":"ひたちなか市","kind":"locality","mz":8,"pop":155970}},{"type":"Feature","geometry":{"type":"Point","coordinates":[140.5747,36.31333]},"properties":{"name":"大洗町","kind":"locality","mz":8,"pop":16886}},{"type":"Feature","geometry":{"type":"Point","coordinates":[140.51651,36.15856]},"properties":{"name":"鉾田市","kind":"locality","mz":8,"pop":47463}},{"type":"Feature","geometry":{"type":"Point","coordinates":[140.6641,35.88985]},"properties":{"name":"神栖市","kind":"locality","mz":8,"pop":95454}},{"type":"Feature","geometry":{"type":"Point","coordinates":[140.49926,35.89781]},"properties":{"name":"香取市","kind":"locality","mz":8,"pop":72356}},{"type":"Feature","geometry":{"type":"Point","coordinates":[140.64504,35.96613]},"properties":{"name":"鹿嶋市","kind":"locality","mz":8,"pop":66950}},{"type":"Feature","geometry":{"type":"Point","coordinates":[140.55556,35.94685]},"properties":{"name":"潮来市","kind":"locality","mz":8,"pop":27604}},{"type":"Feature","geometry":{"type":"Point","coordinates":[140.64646,35.72042]},"properties":{"name":"旭市","kind":"locality","mz":8,"pop":63745}},{"type":"Feature","geometry":{"type":"Point","coordinates":[140.6689,35.83712]},"properties":{"name":"東庄町","kind":"locality","mz":8,"pop":14152}},{"type":"Feature","geometry":{"type":"Point","coordinates":[140.56453,35.70795]},"properties":{"name":"匝瑳市","kind":"locality","mz":8,"pop":35040}},{"type":"Feature","geometry":{"type":"Point","coordinates":[140.50484,35.6658]},"properties":{"name":"横芝光町","kind":"locality","mz":8,"pop":22655}},{"type":"Feature","geometry":{"type":"Point","coordinates":[140.80945,37.33754]},"properties":{"name":"川内村","kind":"locality","mz":12,"pop":2021}},{"type":"Feature","geometry":{"type":"Point","coordinates":[140.7513,36.80186]},"properties":{"name":"北茨城市","kind":"locality","mz":8,"pop":43135}},{"type":"Feature","geometry":{"type":"Point","coordinates":[140.71585,36.71997]},"properties":{"name":"高萩市","kind":"locality","mz":8,"pop":28768}},{"type":"Feature","geometry":{"type":"Point","coordinates":[140.82726,35.73453]},"properties":{"name":"銚子市","kind":"locality","mz":8,"pop":61891}},{"type":"Feature","geometry":{"type":"Point","coordinates":[140.99334,37.28262]},"properties":{"name":"楢葉町","kind":"locality","mz":8,"pop":975}},{"type":"Feature","geometry":{"type":"Point","coordinates":[141.00639,37.45292]},"properties":{"name":"双葉町","kind":"locality","mz":8,"pop":0}},{"type":"Feature","geometry":{"type":"Point","coordinates":[141.00892,37.34519]},"properties":{"name":"富岡町","kind":"locality","mz":8,"pop":0}},{"type":"Feature","geometry":{"type":"Point","coordinates":[140.95871,37.38131]},"properties":{"name":"大熊町","kind":"locality","mz":10,"pop":10000}},{"type":"Feature","geometry":{"type":"Point","coordinates":[140.99437,37.21437]},"properties":{"name":"広野町","kind":"locality","mz":8,"pop":4319}},{"type":"Feature","geometry":{"type":"Point","coordinates":[140.88764,37.05042]},"properties":{"name":"いわき市","kind":"locality","mz":6,"pop":346442}},{"type":"Feature","geometry":{"type":"Point","coordinates":[138.36838,38.01824]},"properties":{"name":"佐渡市","kind":"locality","mz":8,"pop":57255}},{"type":"Feature","geometry":{"type":"Point","coordinates":[138.70952,37.53066]},"properties":{"name":"出雲崎町","kind":"locality","mz":8,"pop":4528}},{"type":"Feature","geometry":{"type":"Point","coordinates":[138.88255,37.67309]},"properties":{"name":"燕市","kind":"locality","mz":8,"pop":77201}},