[
 {
  "name": "油そば 一心",
  "rating": 4.7,
  "reviews": 251,
  "lat": 35.6844728,
  "lng": 139.9146497,
  "genre": "ラーメン",
  "address": "行徳駅前１丁目２０−１４",
  "placeId": "0x6018874b12c7d3bd:0x9f5c9cdb360c3867",
  "mapsUrl": "https://www.google.com/maps?ftid=0x6018874b12c7d3bd:0x9f5c9cdb360c3867&hl=ja",
  "region": "keiyo"
 },
 {
  "name": "つけめん蕎麦 和中ダイニング ゑ富",
  "rating": 4.7,
  "reviews": 71,
  "lat": 35.8572984,
  "lng": 139.977118,
  "genre": "ラーメン",
  "address": "東１丁目２−７",
  "placeId": "0x60189d61c788e49f:0xe222fbed1972bb35",
  "mapsUrl": "https://www.google.com/maps?ftid=0x60189d61c788e49f:0xe222fbed1972bb35&hl=ja",
  "region": "toukatsu"
 },
 {
  "name": "RAMEN MONDAY",
  "rating": 4.7,
  "reviews": 64,
  "lat": 35.9492655,
  "lng": 139.8774348,
  "genre": "ラーメン",
  "address": "中根６−９",
  "placeId": "0x6018990044a9d511:0x338d03aff46ae5f",
  "mapsUrl": "https://www.google.com/maps?ftid=0x6018990044a9d511:0x338d03aff46ae5f&hl=ja",
  "region": "toukatsu"
 },
 {
  "name": "成田山らーめんストリート（Naritasan Ramen Street)",
  "rating": 4.5,
  "reviews": 1355,
  "lat": 35.7770803,
  "lng": 140.3140815,
  "genre": "ラーメン",
  "address": "花崎町８２８−１１ B1",
  "placeId": "0x60228ba0352e96ad:0x85f3186f0b4af7fc",
  "mapsUrl": "https://www.google.com/maps?ftid=0x60228ba0352e96ad:0x85f3186f0b4af7fc&hl=ja",
  "region": "tosou"
 },
 {
  "name": "下町食堂 麺屋ばらいち 住吉店",
  "rating": 4.5,
  "reviews": 695,
  "lat": 35.6832575,
  "lng": 139.8177057,
  "genre": "ラーメン",
  "address": "扇橋３丁目１５−８",
  "placeId": "0x601888c54a595555:0x1c9fb4421e46fbf5",
  "mapsUrl": "https://www.google.com/maps?ftid=0x601888c54a595555:0x1c9fb4421e46fbf5&hl=ja",
  "region": "tokyo"
 },
 {
  "name": "鶏白湯らぁめん 笹本爲次郎商店",
  "rating": 4.5,
  "reviews": 573,
  "lat": 35.6365249,
  "lng": 140.096521,
  "genre": "ラーメン",
  "address": "小仲台１丁目６−２１",
  "placeId": "0x602283a655404e73:0x366c9309c0195915",
  "mapsUrl": "https://www.google.com/maps?ftid=0x602283a655404e73:0x366c9309c0195915&hl=ja",
  "region": "chiba"
 },
 {
  "name": "千葉家",
  "rating": 4.4,
  "reviews": 1674,
  "lat": 35.6428499,
  "lng": 140.1351088,
  "genre": "ラーメン",
  "address": "みつわ台４丁目１７−２２ みつわプラザ",
  "placeId": "0x602284fbba23e807:0x89b1e3c2517e0d7",
  "mapsUrl": "https://www.google.com/maps?ftid=0x602284fbba23e807:0x89b1e3c2517e0d7&hl=ja",
  "region": "chiba"
 },
 {
  "name": "らーめん勝",
  "rating": 4.4,
  "reviews": 982,
  "lat": 35.7033608,
  "lng": 139.9026851,
  "genre": "ラーメン",
  "address": "篠崎町７丁目１３−２０",
  "placeId": "0x60188702706bfd6f:0x301a9a259b9972cb",
  "mapsUrl": "https://www.google.com/maps?ftid=0x60188702706bfd6f:0x301a9a259b9972cb&hl=ja",
  "region": "tokyo"
 },
 {
  "name": "麺や えいちつー",
  "rating": 4.4,
  "reviews": 698,
  "lat": 35.6651019,
  "lng": 139.860916,
  "genre": "ラーメン",
  "address": "西葛西５丁目５−１３ 1F",
  "placeId": "0x60188703d2d1596d:0xdb1e6db998e753e4",
  "mapsUrl": "https://www.google.com/maps?ftid=0x60188703d2d1596d:0xdb1e6db998e753e4&hl=ja",
  "region": "tokyo"
 },
 {
  "name": "らぁ麺 ひなた",
  "rating": 4.4,
  "reviews": 660,
  "lat": 35.4769628,
  "lng": 140.0568378,
  "genre": "ラーメン",
  "address": "姉崎２６２４",
  "placeId": "0x60229e56fb84260f:0xe5806e4686939a65",
  "mapsUrl": "https://www.google.com/maps?ftid=0x60229e56fb84260f:0xe5806e4686939a65&hl=ja",
  "region": "chiba"
 },
 {
  "name": "GINBOSHI 麺屋銀星 成田店",
  "rating": 4.4,
  "reviews": 379,
  "lat": 35.7776894,
  "lng": 140.3175985,
  "genre": "ラーメン",
  "address": "花崎町７５０−３４",
  "placeId": "0x60228bff8fd9f957:0x22ab26c637b4dccc",
  "mapsUrl": "https://www.google.com/maps?ftid=0x60228bff8fd9f957:0x22ab26c637b4dccc&hl=ja",
  "region": "tosou"
 },
 {
  "name": "池田屋食堂",
  "rating": 4.4,
  "reviews": 347,
  "lat": 35.3757795,
  "lng": 139.9314614,
  "genre": "ラーメン",
  "address": "文京５丁目４−７",
  "placeId": "0x60180d6d2d3f6e39:0x1fe0276f11c030ff",
  "mapsUrl": "https://www.google.com/maps?ftid=0x60180d6d2d3f6e39:0x1fe0276f11c030ff&hl=ja",
  "region": "boso"
 },
 {
  "name": "芙蓉",
  "rating": 4.4,
  "reviews": 287,
  "lat": 35.7325349,
  "lng": 139.8916775,
  "genre": "ラーメン",
  "address": "東小岩３丁目２０−６",
  "placeId": "0x6018867ebc330de7:0xa8032a228f020ed1",
  "mapsUrl": "https://www.google.com/maps?ftid=0x6018867ebc330de7:0xa8032a228f020ed1&hl=ja",
  "region": "tokyo"
 },
 {
  "name": "諭吉そば Yukichi Soba",
  "rating": 4.4,
  "reviews": 280,
  "lat": 35.7871145,
  "lng": 139.9045194,
  "genre": "ラーメン",
  "address": "小根本５１−９ マツドKビル 1F",
  "placeId": "0x601884facbacc6c1:0x695751f4a9687c79",
  "mapsUrl": "https://www.google.com/maps?ftid=0x601884facbacc6c1:0x695751f4a9687c79&hl=ja",
  "region": "toukatsu"
 },
 {
  "name": "NAKAMICHI",
  "rating": 4.4,
  "reviews": 252,
  "lat": 35.5253513,
  "lng": 140.4455457,
  "genre": "ラーメン",
  "address": "片貝６６５０",
  "placeId": "0x6022c30020d9e5d7:0x335e4b1d5bc00c59",
  "mapsUrl": "https://www.google.com/maps?ftid=0x6022c30020d9e5d7:0x335e4b1d5bc00c59&hl=ja",
  "region": "tosou"
 },
 {
  "name": "MEN-YA大黒",
  "rating": 4.4,
  "reviews": 229,
  "lat": 34.9911413,
  "lng": 139.8854119,
  "genre": "ラーメン",
  "address": "山本２５２−１４",
  "placeId": "0x6017fa28aa7e028d:0xd918642e6146b298",
  "mapsUrl": "https://www.google.com/maps?ftid=0x6017fa28aa7e028d:0xd918642e6146b298&hl=ja",
  "region": "boso"
 },
 {
  "name": "煮干し中華蕎麦 彩葉に",
  "rating": 4.4,
  "reviews": 226,
  "lat": 35.7013066,
  "lng": 140.0929134,
  "genre": "ラーメン",
  "address": "八千代台東１丁目１７−８ 1FB7 八千代シティプラザ",
  "placeId": "0x6022817115e124a9:0xb12a40a0a61af509",
  "mapsUrl": "https://www.google.com/maps?ftid=0x6022817115e124a9:0xb12a40a0a61af509&hl=ja",
  "region": "chiba"
 },
 {
  "name": "ラーメン無道居",
  "rating": 4.4,
  "reviews": 220,
  "lat": 35.73179,
  "lng": 140.838437,
  "genre": "ラーメン",
  "address": "新生町１丁目４５−１７",
  "placeId": "0x6023231a5a3ab663:0x67ba8a61fc82f404",
  "mapsUrl": "https://www.google.com/maps?ftid=0x6023231a5a3ab663:0x67ba8a61fc82f404&hl=ja",
  "region": "tosou"
 },
 {
  "name": "ジャパニーズラーメン マンちゃん",
  "rating": 4.4,
  "reviews": 163,
  "lat": 35.6838011,
  "lng": 139.8159888,
  "genre": "ラーメン",
  "address": "扇橋２丁目１２−５",
  "placeId": "0x601889006dcda93b:0x9fd949d9166f9307",
  "mapsUrl": "https://www.google.com/maps?ftid=0x601889006dcda93b:0x9fd949d9166f9307&hl=ja",
  "region": "tokyo"
 },
 {
  "name": "からめんや Maru",
  "rating": 4.4,
  "reviews": 139,
  "lat": 35.2750601,
  "lng": 139.8514844,
  "genre": "ラーメン",
  "address": "小久保",
  "placeId": "0x601811b52e6affa5:0xca7d422911faeed0",
  "mapsUrl": "https://www.google.com/maps?ftid=0x601811b52e6affa5:0xca7d422911faeed0&hl=ja",
  "region": "boso"
 },
 {
  "name": "アディクトン",
  "rating": 4.4,
  "reviews": 133,
  "lat": 35.3998413,
  "lng": 140.0041843,
  "genre": "ラーメン",
  "address": "上望陀６０９",
  "placeId": "0x60180bf159fe26b1:0xb1b24c1dc5c07c88",
  "mapsUrl": "https://www.google.com/maps?ftid=0x60180bf159fe26b1:0xb1b24c1dc5c07c88&hl=ja",
  "region": "boso"
 },
 {
  "name": "麺処Umi",
  "rating": 4.4,
  "reviews": 131,
  "lat": 35.7299138,
  "lng": 140.8284303,
  "genre": "ラーメン",
  "address": "西芝町１４−８",
  "placeId": "0x602323958dc5d8db:0x418aa574a007688a",
  "mapsUrl": "https://www.google.com/maps?ftid=0x602323958dc5d8db:0x418aa574a007688a&hl=ja",
  "region": "tosou"
 },
 {
  "name": "らぁ麺 本気人",
  "rating": 4.4,
  "reviews": 121,
  "lat": 35.530106,
  "lng": 140.264917,
  "genre": "ラーメン",
  "address": "あすみが丘３丁目51−１５",
  "placeId": "0x602297aa82927ee9:0xd36c17bc3ed339a9",
  "mapsUrl": "https://www.google.com/maps?ftid=0x602297aa82927ee9:0xd36c17bc3ed339a9&hl=ja",
  "region": "chiba"
 },
 {
  "name": "麺屋 褻ノ日",
  "rating": 4.4,
  "reviews": 100,
  "lat": 35.1050741,
  "lng": 140.1041854,
  "genre": "ラーメン",
  "address": "横渚888ー2",
  "placeId": "0x603d53b734db2367:0x2795f6199055e744",
  "mapsUrl": "https://www.google.com/maps?ftid=0x603d53b734db2367:0x2795f6199055e744&hl=ja",
  "region": "boso"
 },
 {
  "name": "よしき坊ラーメン ねぶり",
  "rating": 4.4,
  "reviews": 91,
  "lat": 35.1844101,
  "lng": 140.3534393,
  "genre": "ラーメン",
  "address": "須賀５１５−１６",
  "placeId": "0x603d35fbfe31e439:0x5962cf33cc39f0cc",
  "mapsUrl": "https://www.google.com/maps?ftid=0x603d35fbfe31e439:0x5962cf33cc39f0cc&hl=ja",
  "region": "boso"
 },
 {
  "name": "シャンリ",
  "rating": 4.4,
  "reviews": 84,
  "lat": 35.720012,
  "lng": 140.646641,
  "genre": "ラーメン",
  "address": "ニ１９２３",
  "placeId": "0x6022e1a29e9cfe39:0xf7ad10749936585f",
  "mapsUrl": "https://www.google.com/maps?ftid=0x6022e1a29e9cfe39:0xf7ad10749936585f&hl=ja",
  "region": "tosou"
 },
 {
  "name": "ゆのんずラーメン",
  "rating": 4.4,
  "reviews": 80,
  "lat": 35.0029943,
  "lng": 139.8712905,
  "genre": "ラーメン",
  "address": "北条１２６４−４",
  "placeId": "0x6017f90032ba72c7:0xf028574c3647de3b",
  "mapsUrl": "https://www.google.com/maps?ftid=0x6017f90032ba72c7:0xf028574c3647de3b&hl=ja",
  "region": "boso"
 },
 {
  "name": "中華食堂 かしわ",
  "rating": 4.4,
  "reviews": 68,
  "lat": 35.68105,
  "lng": 139.9126546,
  "genre": "ラーメン",
  "address": "湊新田２丁目１−２５ 三東第３マンション",
  "placeId": "0x6018876896deb419:0x6b3b567ca636eb99",
  "mapsUrl": "https://www.google.com/maps?ftid=0x6018876896deb419:0x6b3b567ca636eb99&hl=ja",
  "region": "keiyo"
 },
 {
  "name": "八街激うま！ラーメン祭り会場",
  "rating": 4.4,
  "reviews": 51,
  "lat": 35.660684,
  "lng": 140.3189774,
  "genre": "中華料理",
  "address": "ほ２４５",
  "placeId": "0x602293003d9c74ff:0xec7e9cf5f9fc0c7c",
  "mapsUrl": "https://www.google.com/maps?ftid=0x602293003d9c74ff:0xec7e9cf5f9fc0c7c&hl=ja",
  "region": "tosou"
 },
 {
  "name": "スパイス・ラー麺 卍力 西葛西本店",
  "rating": 4.3,
  "reviews": 1994,
  "lat": 35.665861,
  "lng": 139.857976,
  "genre": "ラーメン",
  "address": "西葛西３丁目１６−５",
  "placeId": "0x601887e0e546aaab:0x7b0d8c6cfc32c9f2",
  "mapsUrl": "https://www.google.com/maps?ftid=0x601887e0e546aaab:0x7b0d8c6cfc32c9f2&hl=ja",
  "region": "tokyo"
 },
 {
  "name": "らーめん こうかいぼう",
  "rating": 4.3,
  "reviews": 1656,
  "lat": 35.6753009,
  "lng": 139.7988027,
  "genre": "ラーメン",
  "address": "深川２丁目１３−１０",
  "placeId": "0x6018891159615e5d:0xaa8f175178e92dd6",
  "mapsUrl": "https://www.google.com/maps?ftid=0x6018891159615e5d:0xaa8f175178e92dd6&hl=ja",
  "region": "tokyo"
 },
 {
  "name": "麺屋 吉左右",
  "rating": 4.3,
  "reviews": 1200,
  "lat": 35.6684679,
  "lng": 139.8103078,
  "genre": "ラーメン",
  "address": "東陽１丁目１１−３ 桜興業桜マンション",
  "placeId": "0x60188900eec80d53:0x97cf8a9dabd638e9",
  "mapsUrl": "https://www.google.com/maps?ftid=0x60188900eec80d53:0x97cf8a9dabd638e9&hl=ja",
  "region": "tokyo"
 },
 {
  "name": "ラーメン二郎 千葉店",
  "rating": 4.3,
  "reviews": 1122,
  "lat": 35.6104939,
  "lng": 140.1236036,
  "genre": "ラーメン",
  "address": "中央１丁目７−８",
  "placeId": "0x602285b87119cbb1:0x28ffaceee4b67b85",
  "mapsUrl": "https://www.google.com/maps?ftid=0x602285b87119cbb1:0x28ffaceee4b67b85&hl=ja",
  "region": "chiba"
 },
 {
  "name": "豆でっぽう",
  "rating": 4.3,
  "reviews": 1121,
  "lat": 35.8749027,
  "lng": 140.0407773,
  "genre": "ラーメン",
  "address": "柴崎台２丁目６−２１ カスターニャ",
  "placeId": "0x6022778ceb2ceccf:0x195d929e7cd45af",
  "mapsUrl": "https://www.google.com/maps?ftid=0x6022778ceb2ceccf:0x195d929e7cd45af&hl=ja",
  "region": "toukatsu"
 },
 {
  "name": "らぁ麺 ばらや",
  "rating": 4.3,
  "reviews": 977,
  "lat": 35.6704541,
  "lng": 139.8166522,
  "genre": "ラーメン",
  "address": "東陽４丁目３−１ 信栄ビル 1F",
  "placeId": "0x60188935f79ae5d9:0x681a4eec2cf0365d",
  "mapsUrl": "https://www.google.com/maps?ftid=0x60188935f79ae5d9:0x681a4eec2cf0365d&hl=ja",
  "region": "tokyo"
 },
 {
  "name": "栄昇らーめん",
  "rating": 4.3,
  "reviews": 968,
  "lat": 35.6846523,
  "lng": 140.0217923,
  "genre": "ラーメン",
  "address": "津田沼２丁目１−１０ ヒカリマンション",
  "placeId": "0x60228028fda81c6f:0x1f7457aebf994e3d",
  "mapsUrl": "https://www.google.com/maps?ftid=0x60228028fda81c6f:0x1f7457aebf994e3d&hl=ja",
  "region": "keiyo"
 },
 {
  "name": "ラーメン濱野家",
  "rating": 4.3,
  "reviews": 865,
  "lat": 35.5174098,
  "lng": 140.0851809,
  "genre": "ラーメン",
  "address": "五井２４４２−１",
  "placeId": "0x60229fb818801e57:0xdaf87d120e438262",
  "mapsUrl": "https://www.google.com/maps?ftid=0x60229fb818801e57:0xdaf87d120e438262&hl=ja",
  "region": "chiba"
 },
 {
  "name": "博多長浜らーめん もりや",
  "rating": 4.3,
  "reviews": 844,
  "lat": 35.7881178,
  "lng": 139.9661937,
  "genre": "ラーメン",
  "address": "松飛台１１２−２６",
  "placeId": "0x6018830b5ce96651:0xda7171338e7718ef",
  "mapsUrl": "https://www.google.com/maps?ftid=0x6018830b5ce96651:0xda7171338e7718ef&hl=ja",
  "region": "toukatsu"
 },
 {
  "name": "鷹の爪",
  "rating": 4.3,
  "reviews": 817,
  "lat": 35.6847437,
  "lng": 139.9140343,
  "genre": "ラーメン",
  "address": "行徳駅前１丁目２１−１３",
  "placeId": "0x601887699bb40001:0xae8318ce4fcef178",
  "mapsUrl": "https://www.google.com/maps?ftid=0x601887699bb40001:0xae8318ce4fcef178&hl=ja",
  "region": "keiyo"
 },
 {
  "name": "濃厚タンメン かめしげ",
  "rating": 4.3,
  "reviews": 742,
  "lat": 35.6963833,
  "lng": 139.8249572,
  "genre": "ラーメン",
  "address": "亀戸１丁目３９−１",
  "placeId": "0x60188986c3179e8b:0x9807028bbf397f50",
  "mapsUrl": "https://www.google.com/maps?ftid=0x60188986c3179e8b:0x9807028bbf397f50&hl=ja",
  "region": "tokyo"
 },
 {
  "name": "麺処 にし尾",
  "rating": 4.3,
  "reviews": 736,
  "lat": 35.8579018,
  "lng": 139.9766915,
  "genre": "ラーメン",
  "address": "東１丁目２−４５ 石戸第3ビル 101",
  "placeId": "0x60189d1c7dba7547:0x17d954275097d34",
  "mapsUrl": "https://www.google.com/maps?ftid=0x60189d1c7dba7547:0x17d954275097d34&hl=ja",
  "region": "toukatsu"
 },
 {
  "name": "鶏白湯そば 鶏すけ",
  "rating": 4.3,
  "reviews": 733,
  "lat": 35.7354166,
  "lng": 140.2732418,
  "genre": "ラーメン",
  "address": "中川５８−１１",
  "placeId": "0x60228d8af0fd96bd:0xd1e2a28b77f7a9bc",
  "mapsUrl": "https://www.google.com/maps?ftid=0x60228d8af0fd96bd:0xd1e2a28b77f7a9bc&hl=ja",
  "region": "inba"
 },
 {
  "name": "ぼのぼの",
  "rating": 4.3,
  "reviews": 702,
  "lat": 35.5513874,
  "lng": 140.3625602,
  "genre": "ラーメン",
  "address": "東金１２８−２",
  "placeId": "0x6022c01c349a0d97:0xec8fe0875f7f89eb",
  "mapsUrl": "https://www.google.com/maps?ftid=0x6022c01c349a0d97:0xec8fe0875f7f89eb&hl=ja",
  "region": "tosou"
 },
 {
  "name": "成都担担面",
  "rating": 4.3,
  "reviews": 643,
  "lat": 35.7851477,
  "lng": 139.9220956,
  "genre": "ラーメン",
  "address": "８丁目-４０-１９ 稔台",
  "placeId": "0x60188489e29f853f:0x9f919f968faf2c7e",
  "mapsUrl": "https://www.google.com/maps?ftid=0x60188489e29f853f:0x9f919f968faf2c7e&hl=ja",
  "region": "toukatsu"
 },
 {
  "name": "九州博多らーめん ぽんこつ亭",
  "rating": 4.3,
  "reviews": 640,
  "lat": 35.7929723,
  "lng": 140.3148506,
  "genre": "ラーメン",
  "address": "土屋１３１４−２",
  "placeId": "0x60228b0288bce76d:0x891c8b901e1e76ca",
  "mapsUrl": "https://www.google.com/maps?ftid=0x60228b0288bce76d:0x891c8b901e1e76ca&hl=ja",
  "region": "tosou"
 },
 {
  "name": "めん吉 南柏店",
  "rating": 4.3,
  "reviews": 620,
  "lat": 35.8458406,
  "lng": 139.9581136,
  "genre": "ラーメン",
  "address": "豊四季９４８−２",
  "placeId": "0x60189cc7e58c0485:0xa6536251bde52500",
  "mapsUrl": "https://www.google.com/maps?ftid=0x60189cc7e58c0485:0xa6536251bde52500&hl=ja",
  "region": "toukatsu"
 },
 {
  "name": "一天門 成田空港 LCCターミナル店",
  "rating": 4.3,
  "reviews": 616,
  "lat": 35.7790726,
  "lng": 140.3837405,
  "genre": "ラーメン",
  "address": "取香１４８−１",
  "placeId": "0x6022f33b60b54c83:0xf6ff004d018cd141",
  "mapsUrl": "https://www.google.com/maps?ftid=0x6022f33b60b54c83:0xf6ff004d018cd141&hl=ja",
  "region": "tosou"
 },
 {
  "name": "ラーメン凛 砂町店",
  "rating": 4.3,
  "reviews": 584,
  "lat": 35.6812954,
  "lng": 139.8409115,
  "genre": "ラーメン",
  "address": "東砂１丁目６−８",
  "placeId": "0x60188889a11affff:0x963a52c7b9d274d3",
  "mapsUrl": "https://www.google.com/maps?ftid=0x60188889a11affff:0x963a52c7b9d274d3&hl=ja",
  "region": "tokyo"
 },
 {
  "name": "ラーメン Sorenari",
  "rating": 4.3,
  "reviews": 568,
  "lat": 35.7289308,
  "lng": 139.9100405,
  "genre": "ラーメン",
  "address": "市川１丁目３−７",
  "placeId": "0x6018892bbb20edc7:0xe8681a183ed40e1d",
  "mapsUrl": "https://www.google.com/maps?ftid=0x6018892bbb20edc7:0xe8681a183ed40e1d&hl=ja",
  "region": "toukatsu"
 },
 {
  "name": "館山 生姜醤油ラーメン 波音食堂",
  "rating": 4.3,
  "reviews": 536,
  "lat": 34.9720697,
  "lng": 139.8636191,
  "genre": "ラーメン",
  "address": "上真倉１５８４",
  "placeId": "0x6017fa0dc0338933:0x4f4815a44f05b7f8",
  "mapsUrl": "https://www.google.com/maps?ftid=0x6017fa0dc0338933:0x4f4815a44f05b7f8&hl=ja",
  "region": "boso"
 },
 {
  "name": "中華そば れもん",
  "rating": 4.3,
  "reviews": 526,
  "lat": 35.894723,
  "lng": 139.9594648,
  "genre": "ラーメン",
  "address": "若柴６９−１",
  "placeId": "0x60189df9abf8cb8d:0xf41a80c96f8b5e5",
  "mapsUrl": "https://www.google.com/maps?ftid=0x60189df9abf8cb8d:0xf41a80c96f8b5e5&hl=ja",
  "region": "toukatsu"
 },
 {
  "name": "長洲屋",
  "rating": 4.3,
  "reviews": 488,
  "lat": 35.6020553,
  "lng": 140.121257,
  "genre": "ラーメン",
  "address": "長洲１丁目２４−１",
  "placeId": "0x60229b4a016c7f65:0xf6fb9c3aaab21b5d",
  "mapsUrl": "https://www.google.com/maps?ftid=0x60229b4a016c7f65:0xf6fb9c3aaab21b5d&hl=ja",
  "region": "chiba"
 },
 {
  "name": "麺や福々三座",
  "rating": 4.3,
  "reviews": 471,
  "lat": 35.7220973,
  "lng": 140.0717419,
  "genre": "ラーメン",
  "address": "大和田新田１０３５−１",
  "placeId": "0x602281eb3a0ec561:0x34a8555e55b76a72",
  "mapsUrl": "https://www.google.com/maps?ftid=0x602281eb3a0ec561:0x34a8555e55b76a72&hl=ja",
  "region": "toukatsu"
 },
 {
  "name": "鶏白湯らーめん 大葉",
  "rating": 4.3,
  "reviews": 463,
  "lat": 35.4212757,
  "lng": 140.3005052,
  "genre": "ラーメン",
  "address": "早野２９８９",
  "placeId": "0x6022b906dd0da4ab:0xb9a9ec203bef8593",
  "mapsUrl": "https://www.google.com/maps?ftid=0x6022b906dd0da4ab:0xb9a9ec203bef8593&hl=ja",
  "region": "boso"
 },
 {
  "name": "中華蕎麦 柳",
  "rating": 4.3,
  "reviews": 459,
  "lat": 35.8355015,
  "lng": 139.9301901,
  "genre": "ラーメン",
  "address": "殿平賀８２",
  "placeId": "0x60189b29952ab015:0x83cde6e916fdeb78",
  "mapsUrl": "https://www.google.com/maps?ftid=0x60189b29952ab015:0x83cde6e916fdeb78&hl=ja",
  "region": "toukatsu"
 },
 {
  "name": "古民家ヌードゥル 黒揚羽森住",
  "rating": 4.3,
  "reviews": 457,
  "lat": 35.5143647,
  "lng": 140.3402956,
  "genre": "ラーメン",
  "address": "北横川１７５−１",
  "placeId": "0x6022bf0015aa991b:0x5e0abcc99161de6c",
  "mapsUrl": "https://www.google.com/maps?ftid=0x6022bf0015aa991b:0x5e0abcc99161de6c&hl=ja",
  "region": "tosou"
 },
 {
  "name": "麺屋ばらお 大衆酒場はな 南砂店",
  "rating": 4.3,
  "reviews": 441,
  "lat": 35.6701144,
  "lng": 139.8253991,
  "genre": "ラーメン",
  "address": "南砂２丁目３７−１２ 南砂パブリックハイツ",
  "placeId": "0x60188945e6f5c6f1:0x8cf579ed1333f044",
  "mapsUrl": "https://www.google.com/maps?ftid=0x60188945e6f5c6f1:0x8cf579ed1333f044&hl=ja",
  "region": "tokyo"
 },
 {
  "name": "味処 むさし野",
  "rating": 4.3,
  "reviews": 440,
  "lat": 35.7826796,
  "lng": 139.9180884,
  "genre": "ラーメン",
  "address": "松戸新田１３３−４ 第二山田ハイツ",
  "placeId": "0x6018846030ff254b:0x9ca95eb255a42b04",
  "mapsUrl": "https://www.google.com/maps?ftid=0x6018846030ff254b:0x9ca95eb255a42b04&hl=ja",
  "region": "toukatsu"
 },
 {
  "name": "麺屋 ぱんどら",
  "rating": 4.3,
  "reviews": 426,
  "lat": 35.7136575,
  "lng": 140.2245412,
  "genre": "ラーメン",
  "address": "鏑木町１丁目７−２１",
  "placeId": "0x60228ed7d791947b:0x85ba9d7b9db960b8",
  "mapsUrl": "https://www.google.com/maps?ftid=0x60228ed7d791947b:0x85ba9d7b9db960b8&hl=ja",
  "region": "inba"
 },
 {
  "name": "手打ちらーめん 与三郎",
  "rating": 4.3,
  "reviews": 372,
  "lat": 35.6993176,
  "lng": 140.1036559,
  "genre": "中華料理",
  "address": "柏井町１６１８−３",
  "placeId": "0x602286cda7b5d3cf:0xd2dea2bbfaf868ce",
  "mapsUrl": "https://www.google.com/maps?ftid=0x602286cda7b5d3cf:0xd2dea2bbfaf868ce&hl=ja",
  "region": "inba"
 },
 {
  "name": "ラーメン ヨシトミ",
  "rating": 4.3,
  "reviews": 338,
  "lat": 35.6390903,
  "lng": 140.0931816,
  "genre": "ラーメン",
  "address": "小仲台６丁目１７−２",
  "placeId": "0x602283d8375f81cf:0x487591a5abb20788",
  "mapsUrl": "https://www.google.com/maps?ftid=0x602283d8375f81cf:0x487591a5abb20788&hl=ja",
  "region": "chiba"
 },
 {
  "name": "ら〜めん きんとうん",
  "rating": 4.3,
  "reviews": 327,
  "lat": 35.6078891,
  "lng": 140.1174845,
  "genre": "ラーメン",
  "address": "本千葉町１５−１ Ｍｉｏ 内",
  "placeId": "0x602285f052b7d629:0x4d6404e04735e5b6",
  "mapsUrl": "https://www.google.com/maps?ftid=0x602285f052b7d629:0x4d6404e04735e5b6&hl=ja",
  "region": "chiba"
 },
 {
  "name": "麺 えどや",
  "rating": 4.3,
  "reviews": 321,
  "lat": 35.731343,
  "lng": 139.8811604,
  "genre": "ラーメン",
  "address": "南小岩６丁目３０−６",
  "placeId": "0x6018867610fb6785:0x8f963efb6c8f6d68",
  "mapsUrl": "https://www.google.com/maps?ftid=0x6018867610fb6785:0x8f963efb6c8f6d68&hl=ja",
  "region": "tokyo"
 },
 {
  "name": "自家製麺 ご藤",
  "rating": 4.3,
  "reviews": 314,
  "lat": 35.7000929,
  "lng": 139.9941011,
  "genre": "ラーメン",
  "address": "宮本６丁目２−２７",
  "placeId": "0x60187f007141875b:0x39ef3c6c9939deb",
  "mapsUrl": "https://www.google.com/maps?ftid=0x60187f007141875b:0x39ef3c6c9939deb&hl=ja",
  "region": "keiyo"
 },
 {
  "name": "らー麺まる長",
  "rating": 4.3,
  "reviews": 283,
  "lat": 35.669203,
  "lng": 139.907437,
  "genre": "ラーメン",
  "address": "南行徳２丁目１１−３",
  "placeId": "0x60188762993bcfa5:0xa81d253d830a414e",
  "mapsUrl": "https://www.google.com/maps?ftid=0x60188762993bcfa5:0xa81d253d830a414e&hl=ja",
  "region": "keiyo"
 },
 {
  "name": "一条流がんこ11代目",
  "rating": 4.3,
  "reviews": 277,
  "lat": 35.6828992,
  "lng": 139.9112342,
  "genre": "ラーメン",
  "address": "行徳駅前２丁目２１",
  "placeId": "0x6018876931aaaaab:0x6e6952d8de2fbc6",
  "mapsUrl": "https://www.google.com/maps?ftid=0x6018876931aaaaab:0x6e6952d8de2fbc6&hl=ja",
  "region": "keiyo"
 },
 {
  "name": "元祖油堂 油そば 柏西口店",
  "rating": 4.3,
  "reviews": 267,
  "lat": 35.8634963,
  "lng": 139.9700884,
  "genre": "ラーメン",
  "address": "末広町４−５ 一番ビル 1F",
  "placeId": "0x60189d2177f6e221:0x6b7eccf816c002dd",
  "mapsUrl": "https://www.google.com/maps?ftid=0x60189d2177f6e221:0x6b7eccf816c002dd&hl=ja",
  "region": "toukatsu"
 },
 {
  "name": "横浜家系ラーメン 隆希家",
  "rating": 4.3,
  "reviews": 264,
  "lat": 35.8655991,
  "lng": 139.9302881,
  "genre": "ラーメン",
  "address": "豊四季20番地",
  "placeId": "0x60189bc6c256272b:0x306f651e6b70bf31",
  "mapsUrl": "https://www.google.com/maps?ftid=0x60189bc6c256272b:0x306f651e6b70bf31&hl=ja",
  "region": "toukatsu"
 },
 {
  "name": "らぁ麺 大塚",
  "rating": 4.3,
  "reviews": 264,
  "lat": 35.3323343,
  "lng": 139.8581229,
  "genre": "ラーメン",
  "address": "大堀１丁目８−１",
  "placeId": "0x60180d09b7886d6b:0xb0dfa28ddbced6f3",
  "mapsUrl": "https://www.google.com/maps?ftid=0x60180d09b7886d6b:0xb0dfa28ddbced6f3&hl=ja",
  "region": "boso"
 },
 {
  "name": "こしょうや",
  "rating": 4.3,
  "reviews": 263,
  "lat": 35.667074,
  "lng": 139.840849,
  "genre": "ラーメン",
  "address": "東砂８丁目１３−７ 東砂八丁目第二アパート７号棟 １０５",
  "placeId": "0x6018886ee890368b:0x2d865b67acea61cc",
  "mapsUrl": "https://www.google.com/maps?ftid=0x6018886ee890368b:0x2d865b67acea61cc&hl=ja",
  "region": "tokyo"
 },
 {
  "name": "かじや飲食店",
  "rating": 4.3,
  "reviews": 258,
  "lat": 35.8552684,
  "lng": 140.3351182,
  "genre": "ラーメン",
  "address": "西大須賀１４３４−５",
  "placeId": "0x602260131d01567b:0x8f661d25a1b65b2f",
  "mapsUrl": "https://www.google.com/maps?ftid=0x602260131d01567b:0x8f661d25a1b65b2f&hl=ja",
  "region": "tosou"
 },
 {
  "name": "中華そば榮田",
  "rating": 4.3,
  "reviews": 241,
  "lat": 35.8550462,
  "lng": 139.9739225,
  "genre": "ラーメン",
  "address": "千代田２丁目２−６",
  "placeId": "0x60189ddf2b21171f:0xcd98e7189ae1b883",
  "mapsUrl": "https://www.google.com/maps?ftid=0x60189ddf2b21171f:0xcd98e7189ae1b883&hl=ja",
  "region": "toukatsu"
 },
 {
  "name": "むべ",
  "rating": 4.3,
  "reviews": 238,
  "lat": 35.8446497,
  "lng": 140.2267366,
  "genre": "ラーメン",
  "address": "長門谷１１６−７",
  "placeId": "0x60226369c7e7f0cf:0xf9cf844c6303c0b8",
  "mapsUrl": "https://www.google.com/maps?ftid=0x60226369c7e7f0cf:0xf9cf844c6303c0b8&hl=ja",
  "region": "inba"
 },
 {
  "name": "ライトハウス",
  "rating": 4.3,
  "reviews": 238,
  "lat": 35.757832,
  "lng": 140.2976078,
  "genre": "ラーメン",
  "address": "公津の杜３丁目６−５ ソレイユビル 101",
  "placeId": "0x60228b856a4eb757:0xd6a8c81a8ed1e785",
  "mapsUrl": "https://www.google.com/maps?ftid=0x60228b856a4eb757:0xd6a8c81a8ed1e785&hl=ja",
  "region": "inba"
 },
 {
  "name": "らぁめんひろりん",
  "rating": 4.3,
  "reviews": 233,
  "lat": 35.7166041,
  "lng": 140.1445154,
  "genre": "ラーメン",
  "address": "上志津１６５６−５４",
  "placeId": "0x60228761796a1a43:0xbfc7de08dabdadb5",
  "mapsUrl": "https://www.google.com/maps?ftid=0x60228761796a1a43:0xbfc7de08dabdadb5&hl=ja",
  "region": "inba"
 },
 {
  "name": "とんぼ亭",
  "rating": 4.3,
  "reviews": 233,
  "lat": 35.6771988,
  "lng": 139.8634834,
  "genre": "ラーメン",
  "address": "宇喜田町１３６４−１１ 宇田川荘",
  "placeId": "0x601887dae41545af:0x4eb23c67f809827e",
  "mapsUrl": "https://www.google.com/maps?ftid=0x601887dae41545af:0x4eb23c67f809827e&hl=ja",
  "region": "tokyo"
 },
 {
  "name": "牛骨塩ラーメン 七壱",
  "rating": 4.3,
  "reviews": 230,
  "lat": 35.7237193,
  "lng": 139.9290255,
  "genre": "ラーメン",
  "address": "八幡４丁目４−６",
  "placeId": "0x601887e025523d23:0xe85bf29668b1a222",
  "mapsUrl": "https://www.google.com/maps?ftid=0x601887e025523d23:0xe85bf29668b1a222&hl=ja",
  "region": "toukatsu"
 },
 {
  "name": "三つ由",
  "rating": 4.3,
  "reviews": 227,
  "lat": 35.8140403,
  "lng": 139.9117949,
  "genre": "ラーメン",
  "address": "西馬橋蔵元町１８６−２",
  "placeId": "0x601885a19dfeb111:0xfb224f5e84ed3f0",
  "mapsUrl": "https://www.google.com/maps?ftid=0x601885a19dfeb111:0xfb224f5e84ed3f0&hl=ja",
  "region": "toukatsu"
 },
 {
  "name": "スパイス・ラー麺 卍力 行徳店",
  "rating": 4.3,
  "reviews": 221,
  "lat": 35.6825021,
  "lng": 139.9138767,
  "genre": "ラーメン",
  "address": "行徳駅前２丁目４−１３ マーヴ行徳ノース 1F",
  "placeId": "0x601887ae4e4bd7d3:0x52dd250f36829c1e",
  "mapsUrl": "https://www.google.com/maps?ftid=0x601887ae4e4bd7d3:0x52dd250f36829c1e&hl=ja",
  "region": "keiyo"
 },
 {
  "name": "らーめん鶏の一",
  "rating": 4.3,
  "reviews": 210,
  "lat": 35.6835252,
  "lng": 139.859858,
  "genre": "ラーメン",
  "address": "船堀２丁目１１−１６ 103",
  "placeId": "0x60188787836b3915:0x320dce93c46260b7",
  "mapsUrl": "https://www.google.com/maps?ftid=0x60188787836b3915:0x320dce93c46260b7&hl=ja",
  "region": "tokyo"
 },
 {
  "name": "らーめんひさまつ軒",
  "rating": 4.3,
  "reviews": 205,
  "lat": 35.7431275,
  "lng": 139.9910798,
  "genre": "ラーメン",
  "address": "馬込沢３−２２",
  "placeId": "0x6018818e51bd4b35:0x9cd0c7e8aecbcddb",
  "mapsUrl": "https://www.google.com/maps?ftid=0x6018818e51bd4b35:0x9cd0c7e8aecbcddb&hl=ja",
  "region": "toukatsu"
 },
 {
  "name": "中華 春香",
  "rating": 4.3,
  "reviews": 202,
  "lat": 35.6638189,
  "lng": 139.8920224,
  "genre": "ラーメン",
  "address": "猫実４丁目２０−１５",
  "placeId": "0x60188780945e9bbd:0xbd228eced301f5aa",
  "mapsUrl": "https://www.google.com/maps?ftid=0x60188780945e9bbd:0xbd228eced301f5aa&hl=ja",
  "region": "keiyo"
 },
 {
  "name": "いこい食堂",
  "rating": 4.3,
  "reviews": 199,
  "lat": 35.220661,
  "lng": 139.8724125,
  "genre": "ラーメン",
  "address": "湊６６４",
  "placeId": "0x60180ff26097fcf7:0x30a7532d6a3de14",
  "mapsUrl": "https://www.google.com/maps?ftid=0x60180ff26097fcf7:0x30a7532d6a3de14&hl=ja",
  "region": "boso"
 },
 {
  "name": "さくちゃんラーメン",
  "rating": 4.3,
  "reviews": 193,
  "lat": 35.0965776,
  "lng": 139.9961798,
  "genre": "ラーメン",
  "address": "大井２４０７−１",
  "placeId": "0x6017ffc9e58dd5eb:0x6c01edb92cfa107c",
  "mapsUrl": "https://www.google.com/maps?ftid=0x6017ffc9e58dd5eb:0x6c01edb92cfa107c&hl=ja",
  "region": "boso"
 },
 {
  "name": "豚骨醬油らーめん 一心",
  "rating": 4.3,
  "reviews": 185,
  "lat": 35.8199765,
  "lng": 139.9322683,
  "genre": "ラーメン",
  "address": "八ケ崎１丁目１−１ 102",
  "placeId": "0x60188571d03c2c53:0x34a3007616f0b507",
  "mapsUrl": "https://www.google.com/maps?ftid=0x60188571d03c2c53:0x34a3007616f0b507&hl=ja",
  "region": "toukatsu"
 },
 {
  "name": "板前ラーメン青山あそこ",
  "rating": 4.3,
  "reviews": 165,
  "lat": 35.679945,
  "lng": 139.833964,
  "genre": "ラーメン",
  "address": "北砂４丁目３９−８ 湯浅ビル 一階 砂町銀座商店街",
  "placeId": "0x60188d347a12e311:0x7c5ec3ba0dc8fab0",
  "mapsUrl": "https://www.google.com/maps?ftid=0x60188d347a12e311:0x7c5ec3ba0dc8fab0&hl=ja",
  "region": "tokyo"
 },
 {
  "name": "STYLISH LIFE NOODLE",
  "rating": 4.3,
  "reviews": 162,
  "lat": 35.5515244,
  "lng": 140.1706861,
  "genre": "ラーメン",
  "address": "おゆみ野中央３丁目２３−２ ベルおゆみ野 102",
  "placeId": "0x6022997eabc59c51:0x2ab5aeda43548495",
  "mapsUrl": "https://www.google.com/maps?ftid=0x6022997eabc59c51:0x2ab5aeda43548495&hl=ja",
  "region": "chiba"
 },
 {
  "name": "麺食酒楽 和's",
  "rating": 4.3,
  "reviews": 152,
  "lat": 35.7770602,
  "lng": 140.3160663,
  "genre": "ラーメン",
  "address": "花崎町８１４−１５",
  "placeId": "0x60228bda3be3b297:0xb8e71dc400b0564f",
  "mapsUrl": "https://www.google.com/maps?ftid=0x60228bda3be3b297:0xb8e71dc400b0564f&hl=ja",
  "region": "tosou"
 },
 {
  "name": "ラーメン感動の鶏虜",
  "rating": 4.3,
  "reviews": 149,
  "lat": 35.5030807,
  "lng": 140.0687346,
  "genre": "ラーメン",
  "address": "島野２０６３−２",
  "placeId": "0x60229fc2429b2211:0x391a6d85085819c7",
  "mapsUrl": "https://www.google.com/maps?ftid=0x60229fc2429b2211:0x391a6d85085819c7&hl=ja",
  "region": "chiba"
 },
 {
  "name": "らーめんきらく",
  "rating": 4.3,
  "reviews": 146,
  "lat": 35.4406258,
  "lng": 140.3027547,
  "genre": "ラーメン",
  "address": "萩原町２丁目２０８",
  "placeId": "0x6022b921722d46b9:0x1a4a1f71226475ef",
  "mapsUrl": "https://www.google.com/maps?ftid=0x6022b921722d46b9:0x1a4a1f71226475ef&hl=ja",
  "region": "boso"
 },
 {
  "name": "中華 英(はなぶさ) 四川ラーメンの店",
  "rating": 4.3,
  "reviews": 145,
  "lat": 35.8375159,
  "lng": 139.9657628,
  "genre": "ラーメン",
  "address": "つくしが丘１丁目１２−１",
  "placeId": "0x60188332f1e9e7af:0xdd8a4d4e85fad0e7",
  "mapsUrl": "https://www.google.com/maps?ftid=0x60188332f1e9e7af:0xdd8a4d4e85fad0e7&hl=ja",
  "region": "toukatsu"
 },
 {
  "name": "イシイ",
  "rating": 4.3,
  "reviews": 141,
  "lat": 35.2524852,
  "lng": 139.9950633,
  "genre": "ラーメン",
  "address": "西粟倉１１８",
  "placeId": "0x601807110cd7ce77:0xe01060afa1c3b52e",
  "mapsUrl": "https://www.google.com/maps?ftid=0x601807110cd7ce77:0xe01060afa1c3b52e&hl=ja",
  "region": "boso"
 },
 {
  "name": "赤まろラーメン翔",
  "rating": 4.3,
  "reviews": 140,
  "lat": 35.4479224,
  "lng": 140.3041191,
  "genre": "ラーメン",
  "address": "小林３１３５",
  "placeId": "0x6022b92880e1e101:0x8d7fda445c4ebb3b",
  "mapsUrl": "https://www.google.com/maps?ftid=0x6022b92880e1e101:0x8d7fda445c4ebb3b&hl=ja",
  "region": "boso"
 },
 {
  "name": "きかん坊",
  "rating": 4.3,
  "reviews": 140,
  "lat": 35.6830055,
  "lng": 139.8180837,
  "genre": "ラーメン",
  "address": "扇橋３丁目２−３ 扇橋タウンマンション",
  "placeId": "0x601888e3ee9ed4c1:0x5ce4bb7c7b9fc410",
  "mapsUrl": "https://www.google.com/maps?ftid=0x601888e3ee9ed4c1:0x5ce4bb7c7b9fc410&hl=ja",
  "region": "tokyo"
 },
 {
  "name": "Idouji 我孫子店",
  "rating": 4.3,
  "reviews": 136,
  "lat": 35.8707149,
  "lng": 140.013687,
  "genre": "ラーメン",
  "address": "緑１丁目４−８",
  "placeId": "0x60189d007a984d35:0x80d48cac12f68d4a",
  "mapsUrl": "https://www.google.com/maps?ftid=0x60189d007a984d35:0x80d48cac12f68d4a&hl=ja",
  "region": "toukatsu"
 },
 {
  "name": "元祖油堂 油そば 新松戸店",
  "rating": 4.3,
  "reviews": 130,
  "lat": 35.8257448,
  "lng": 139.9198898,
  "genre": "ラーメン",
  "address": "新松戸２丁目１１４−２",
  "placeId": "0x60189bde16ba9fa7:0xe2c053a8071345cd",
  "mapsUrl": "https://www.google.com/maps?ftid=0x60189bde16ba9fa7:0xe2c053a8071345cd&hl=ja",
  "region": "toukatsu"
 },
 {
  "name": "中華そば 鍵山",
  "rating": 4.3,
  "reviews": 129,
  "lat": 35.7879231,
  "lng": 139.9003234,
  "genre": "ラーメン",
  "address": "根本１３−１ 109",
  "placeId": "0x601885df21a95dff:0x537f10432f9d9a8a",
  "mapsUrl": "https://www.google.com/maps?ftid=0x601885df21a95dff:0x537f10432f9d9a8a&hl=ja",
  "region": "toukatsu"
 },
 {
  "name": "中華そば間合 AWAI （アワイ）",
  "rating": 4.3,
  "reviews": 121,
  "lat": 35.6795875,
  "lng": 139.8288231,
  "genre": "ラーメン",
  "address": "北砂３丁目３２−１８",
  "placeId": "0x60188965dd412595:0xe92b832d1bba4f9e",
  "mapsUrl": "https://www.google.com/maps?ftid=0x60188965dd412595:0xe92b832d1bba4f9e&hl=ja",
  "region": "tokyo"
 },
 {
  "name": "はまちゃんぎょうざ",
  "rating": 4.3,
  "reviews": 119,
  "lat": 35.3666431,
  "lng": 139.9162259,
  "genre": "ラーメン",
  "address": "潮見５丁目１−５",
  "placeId": "0x60180d818c52c549:0x9351f602d898de26",
  "mapsUrl": "https://www.google.com/maps?ftid=0x60180d818c52c549:0x9351f602d898de26&hl=ja",
  "region": "boso"
 },
 {
  "name": "ビックラーメン",
  "rating": 4.3,
  "reviews": 114,
  "lat": 35.7356994,
  "lng": 139.8826692,
  "genre": "ラーメン",
  "address": "西小岩５丁目１−２２",
  "placeId": "0x601885d90950bed3:0x894bff8cc3a922b9",
  "mapsUrl": "https://www.google.com/maps?ftid=0x601885d90950bed3:0x894bff8cc3a922b9&hl=ja",
  "region": "tokyo"
 },
 {
  "name": "沖縄 八重山そばの店 やえすば",
  "rating": 4.3,
  "reviews": 110,
  "lat": 35.3645046,
  "lng": 139.9177663,
  "genre": "ラーメン屋",
  "address": "桜井５２１",
  "placeId": "0x601873d8c1afb921:0x9858e85751b62553",
  "mapsUrl": "https://www.google.com/maps?ftid=0x601873d8c1afb921:0x9858e85751b62553&hl=ja",
  "region": "boso"
 },
 {
  "name": "麺処 靖哲",
  "rating": 4.3,
  "reviews": 108,
  "lat": 35.7334819,
  "lng": 139.8877058,
  "genre": "ラーメン",
  "address": "東小岩５丁目１９−６",
  "placeId": "0x6018876d46e0c113:0x81f6d12685380ff5",
  "mapsUrl": "https://www.google.com/maps?ftid=0x6018876d46e0c113:0x81f6d12685380ff5&hl=ja",
  "region": "tokyo"
 },
 {
  "name": "潮そばまる仁",
  "rating": 4.3,
  "reviews": 98,
  "lat": 35.4372327,
  "lng": 139.93207,
  "genre": "ラーメン",
  "address": "金田東１丁目４０−５",
  "placeId": "0x6018738b7922ef3b:0x3d8feab231e70aef",
  "mapsUrl": "https://www.google.com/maps?ftid=0x6018738b7922ef3b:0x3d8feab231e70aef&hl=ja",
  "region": "boso"
 },
 {
  "name": "ミゾグチヤ 船橋店",
  "rating": 4.3,
  "reviews": 96,
  "lat": 35.7555198,
  "lng": 140.0400914,
  "genre": "ラーメン",
  "address": "みやぎ台３丁目４−２７",
  "placeId": "0x60227f75e0a47ef3:0x5f9f363e3e1f0525",
  "mapsUrl": "https://www.google.com/maps?ftid=0x60227f75e0a47ef3:0x5f9f363e3e1f0525&hl=ja",
  "region": "toukatsu"
 },
 {
  "name": "とんこつらーめん いっぽ",
  "rating": 4.3,
  "reviews": 90,
  "lat": 35.6942114,
  "lng": 140.5372581,
  "genre": "ラーメン",
  "address": "八日市場ホ２３６−３",
  "placeId": "0x6022e70029d5dfc9:0x586669cfb477653e",
  "mapsUrl": "https://www.google.com/maps?ftid=0x6022e70029d5dfc9:0x586669cfb477653e&hl=ja",
  "region": "tosou"
 },
 {
  "name": "陽を輝らす",
  "rating": 4.3,
  "reviews": 84,
  "lat": 35.5477373,
  "lng": 140.1462187,
  "genre": "ラーメン",
  "address": "古市場町４７４−１５７",
  "placeId": "0x60229b70fbdaee37:0xed49b6c334e51ca3",
  "mapsUrl": "https://www.google.com/maps?ftid=0x60229b70fbdaee37:0xed49b6c334e51ca3&hl=ja",
  "region": "chiba"
 },
 {
  "name": "らぁめん「ただ作」",
  "rating": 4.3,
  "reviews": 83,
  "lat": 35.7330644,
  "lng": 140.8393896,
  "genre": "ラーメン",
  "address": "新生町１丁目44−１",
  "placeId": "0x602323674f25bfc1:0x2c61e179840fbca3",
  "mapsUrl": "https://www.google.com/maps?ftid=0x602323674f25bfc1:0x2c61e179840fbca3&hl=ja",
  "region": "tosou"
 },
 {
  "name": "戯拉戯拉 西船橋本店",
  "rating": 4.3,
  "reviews": 71,
  "lat": 35.7106398,
  "lng": 139.9563742,
  "genre": "ラーメン",
  "address": "西船５丁目３−１０",
  "placeId": "0x60188100299ea8c1:0x8da6b594311f144",
  "mapsUrl": "https://www.google.com/maps?ftid=0x60188100299ea8c1:0x8da6b594311f144&hl=ja",
  "region": "keiyo"
 },
 {
  "name": "狸小路 豊四季駅前店",
  "rating": 4.3,
  "reviews": 64,
  "lat": 35.8670211,
  "lng": 139.9408242,
  "genre": "ラーメン",
  "address": "豊四季１９８−３８",
  "placeId": "0x60189c7e1464c325:0x23423698bb9fa04f",
  "mapsUrl": "https://www.google.com/maps?ftid=0x60189c7e1464c325:0x23423698bb9fa04f&hl=ja",
  "region": "toukatsu"
 },
 {
  "name": "KOKICHI(コキチ)",
  "rating": 4.3,
  "reviews": 62,
  "lat": 35.3246955,
  "lng": 139.8450589,
  "genre": "ラーメン",
  "address": "青木３丁目16−６",
  "placeId": "0x6018139b47957583:0x501b564f97bea7c6",
  "mapsUrl": "https://www.google.com/maps?ftid=0x6018139b47957583:0x501b564f97bea7c6&hl=ja",
  "region": "boso"
 },
 {
  "name": "戯拉戯拉 京成大久保店",
  "rating": 4.3,
  "reviews": 55,
  "lat": 35.6914526,
  "lng": 140.0503381,
  "genre": "ラーメン",
  "address": "大久保３丁目１２−１１",
  "placeId": "0x602281dbf9415525:0x5912dc50c59af677",
  "mapsUrl": "https://www.google.com/maps?ftid=0x602281dbf9415525:0x5912dc50c59af677&hl=ja",
  "region": "keiyo"
 },
 {
  "name": "YAMA",
  "rating": 4.3,
  "reviews": 53,
  "lat": 35.3593007,
  "lng": 140.3880799,
  "genre": "ラーメン",
  "address": "一宮９９６６",
  "placeId": "0x6022c910c30b59cb:0x3c21310d271cc03c",
  "mapsUrl": "https://www.google.com/maps?ftid=0x6022c910c30b59cb:0x3c21310d271cc03c&hl=ja",
  "region": "boso"
 },
 {
  "name": "ラーメン 杉田家 千葉祐光店",
  "rating": 4.2,
  "reviews": 4115,
  "lat": 35.6189612,
  "lng": 140.1314774,
  "genre": "ラーメン",
  "address": "祐光４丁目１７−７",
  "placeId": "0x602284cfe6aa9e05:0xccc3046a4c97c232",
  "mapsUrl": "https://www.google.com/maps?ftid=0x602284cfe6aa9e05:0xccc3046a4c97c232&hl=ja",
  "region": "chiba"
 },
 {
  "name": "九州ラーメン 友理",
  "rating": 4.2,
  "reviews": 1720,
  "lat": 35.3478383,
  "lng": 139.910942,
  "genre": "ラーメン",
  "address": "港南台４丁目２−７",
  "placeId": "0x60180cf1ffb79feb:0x824d4981b657f2c6",
  "mapsUrl": "https://www.google.com/maps?ftid=0x60180cf1ffb79feb:0x824d4981b657f2c6&hl=ja",
  "region": "boso"
 },
 {
  "name": "双麺 門前仲町店",
  "rating": 4.2,
  "reviews": 1330,
  "lat": 35.6736327,
  "lng": 139.7953703,
  "genre": "ラーメン",
  "address": "門前仲町１丁目１３−５",
  "placeId": "0x601889136dc20b29:0x9dfa58c62b4e7276",
  "mapsUrl": "https://www.google.com/maps?ftid=0x601889136dc20b29:0x9dfa58c62b4e7276&hl=ja",
  "region": "tokyo"
 },
 {
  "name": "支那ソバ 小むろ",
  "rating": 4.2,
  "reviews": 1325,
  "lat": 35.6838087,
  "lng": 139.9180706,
  "genre": "ラーメン",
  "address": "末広１丁目１８−１３ 1F",
  "placeId": "0x60188742e88761a1:0x60481d2e56f4eee2",
  "mapsUrl": "https://www.google.com/maps?ftid=0x60188742e88761a1:0x60481d2e56f4eee2&hl=ja",
  "region": "keiyo"
 },
 {
  "name": "ラーメン二郎 環七一之江店",
  "rating": 4.2,
  "reviews": 1323,
  "lat": 35.6840881,
  "lng": 139.8819511,
  "genre": "ラーメン",
  "address": "一之江８丁目３−４",
  "placeId": "0x601887bbb353efff:0x84d70a59076df1af",
  "mapsUrl": "https://www.google.com/maps?ftid=0x601887bbb353efff:0x84d70a59076df1af&hl=ja",
  "region": "tokyo"
 },
 {
  "name": "喜多方食堂 麺や玄 佐倉分店",
  "rating": 4.2,
  "reviews": 1285,
  "lat": 35.7120478,
  "lng": 140.231216,
  "genre": "ラーメン",
  "address": "表町４丁目１−１",
  "placeId": "0x60228edbb472e6cf:0x59bdc28decb687af",
  "mapsUrl": "https://www.google.com/maps?ftid=0x60228edbb472e6cf:0x59bdc28decb687af&hl=ja",
  "region": "inba"
 },
 {
  "name": "ファミリーレストラン こだま",
  "rating": 4.2,
  "reviews": 1162,
  "lat": 35.138604,
  "lng": 140.2760692,
  "genre": "ラーメン",
  "address": "鵜原８３１",
  "placeId": "0x603d4945624c3393:0xe15dc7ec6aef99a9",
  "mapsUrl": "https://www.google.com/maps?ftid=0x603d4945624c3393:0xe15dc7ec6aef99a9&hl=ja",
  "region": "boso"
 },
 {
  "name": "ラーメン 天一",
  "rating": 4.2,
  "reviews": 1091,
  "lat": 35.4758519,
  "lng": 140.0443547,
  "genre": "ラーメン",
  "address": "姉崎東１丁目４−９",
  "placeId": "0x60229e4675000239:0x607807afe82ddff8",
  "mapsUrl": "https://www.google.com/maps?ftid=0x60229e4675000239:0x607807afe82ddff8&hl=ja",
  "region": "chiba"
 },
 {
  "name": "ラーメン二郎 松戸駅前店",
  "rating": 4.2,
  "reviews": 1027,
  "lat": 35.7859654,
  "lng": 139.8993461,
  "genre": "ラーメン",
  "address": "本町１７−９",
  "placeId": "0x601884e331132685:0x11c8da566965272a",
  "mapsUrl": "https://www.google.com/maps?ftid=0x601884e331132685:0x11c8da566965272a&hl=ja",
  "region": "toukatsu"
 },
 {
  "name": "らぁめん美春",
  "rating": 4.2,
  "reviews": 1009,
  "lat": 35.7938427,
  "lng": 139.9193376,
  "genre": "ラーメン",
  "address": "上本郷４０７９−１",
  "placeId": "0x6018849265426021:0x7e422f78442ce0f",
  "mapsUrl": "https://www.google.com/maps?ftid=0x6018849265426021:0x7e422f78442ce0f&hl=ja",
  "region": "toukatsu"
 },
 {
  "name": "つじ田 東陽町店",
  "rating": 4.2,
  "reviews": 938,
  "lat": 35.6698743,
  "lng": 139.8193989,
  "genre": "ラーメン",
  "address": "東陽４丁目６−２０ 醍醐ビル １階",
  "placeId": "0x60188917d48f56e3:0x1fd3d4dbf4db759e",
  "mapsUrl": "https://www.google.com/maps?ftid=0x60188917d48f56e3:0x1fd3d4dbf4db759e&hl=ja",
  "region": "tokyo"
 },
 {
  "name": "ラーメン二郎 京成大久保店",
  "rating": 4.2,
  "reviews": 902,
  "lat": 35.6915473,
  "lng": 140.0496147,
  "genre": "ラーメン",
  "address": "三山２丁目１−１１",
  "placeId": "0x602280527862b0af:0xc3b5692def084a65",
  "mapsUrl": "https://www.google.com/maps?ftid=0x602280527862b0af:0xc3b5692def084a65&hl=ja",
  "region": "keiyo"
 },
 {
  "name": "ら～麺 あけどや",
  "rating": 4.2,
  "reviews": 870,
  "lat": 35.7275911,
  "lng": 139.9086597,
  "genre": "ラーメン",
  "address": "市川南１丁目２−２２",
  "placeId": "0x60188693b2c2a269:0x8986b0f703ffc070",
  "mapsUrl": "https://www.google.com/maps?ftid=0x60188693b2c2a269:0x8986b0f703ffc070&hl=ja",
  "region": "toukatsu"
 },
 {
  "name": "中華蕎麦 ます嶋",
  "rating": 4.2,
  "reviews": 814,
  "lat": 35.609767,
  "lng": 140.1175181,
  "genre": "ラーメン",
  "address": "富士見２丁目１４−４ 1D",
  "placeId": "0x60228507100d661d:0x6511aecee0b161af",
  "mapsUrl": "https://www.google.com/maps?ftid=0x60228507100d661d:0x6511aecee0b161af&hl=ja",
  "region": "chiba"
 },
 {
  "name": "横浜ラーメン末広家",
  "rating": 4.2,
  "reviews": 807,
  "lat": 35.5971004,
  "lng": 140.125017,
  "genre": "ラーメン",
  "address": "末広１丁目１５−７ シャトール末広",
  "placeId": "0x60229b39bb257de9:0x2ffd8e8eededc4c6",
  "mapsUrl": "https://www.google.com/maps?ftid=0x60229b39bb257de9:0x2ffd8e8eededc4c6&hl=ja",
  "region": "chiba"
 },
 {
  "name": "超ごってり麺 ごっつ津田沼店",
  "rating": 4.2,
  "reviews": 799,
  "lat": 35.692837,
  "lng": 140.0260265,
  "genre": "ラーメン",
  "address": "前原東１丁目９−１",
  "placeId": "0x60187f9611adeaf5:0xad178704f8c9cc86",
  "mapsUrl": "https://www.google.com/maps?ftid=0x60187f9611adeaf5:0xad178704f8c9cc86&hl=ja",
  "region": "keiyo"
 },
 {
  "name": "長男、もんたいちお",
  "rating": 4.2,
  "reviews": 756,
  "lat": 35.7240535,
  "lng": 139.9290719,
  "genre": "ラーメン",
  "address": "八幡４丁目４−９ 山ビル 1階",
  "placeId": "0x6018876c49a969c3:0x94fa752c691351c4",
  "mapsUrl": "https://www.google.com/maps?ftid=0x6018876c49a969c3:0x94fa752c691351c4&hl=ja",
  "region": "toukatsu"
 },
 {
  "name": "The Noodles & Saloon Kiriya",
  "rating": 4.2,
  "reviews": 746,
  "lat": 35.8818505,
  "lng": 139.9164588,
  "genre": "ラーメン",
  "address": "西初石４丁目４７５−１",
  "placeId": "0x60189be82958ffff:0x851432fea6fe11fe",
  "mapsUrl": "https://www.google.com/maps?ftid=0x60189be82958ffff:0x851432fea6fe11fe&hl=ja",
  "region": "toukatsu"
 },
 {
  "name": "一風堂 イクスピアリ店",
  "rating": 4.2,
  "reviews": 736,
  "lat": 35.6346877,
  "lng": 139.8851667,
  "genre": "ラーメン",
  "address": "舞浜１−４ イクスピアリ 3F グレイシャス・スクエア",
  "placeId": "0x60187d102b79f70f:0x888ac4691a67b0d8",
  "mapsUrl": "https://www.google.com/maps?ftid=0x60187d102b79f70f:0x888ac4691a67b0d8&hl=ja",
  "region": "keiyo"
 },
 {
  "name": "ラーメンとうかんや",
  "rating": 4.2,
  "reviews": 706,
  "lat": 35.700997,
  "lng": 139.8771873,
  "genre": "ラーメン",
  "address": "西一之江１丁目１２−７",
  "placeId": "0x6018885fe7cc602f:0xb2e66619cc8f680",
  "mapsUrl": "https://www.google.com/maps?ftid=0x6018885fe7cc602f:0xb2e66619cc8f680&hl=ja",
  "region": "tokyo"
 },
 {
  "name": "大勝軒 北習志野店",
  "rating": 4.2,
  "reviews": 671,
  "lat": 35.7210197,
  "lng": 140.0418243,
  "genre": "ラーメン",
  "address": "西習志野３丁目２７−１２",
  "placeId": "0x6022807509f36bdf:0xed9c715662eb2379",
  "mapsUrl": "https://www.google.com/maps?ftid=0x6022807509f36bdf:0xed9c715662eb2379&hl=ja",
  "region": "toukatsu"
 },
 {
  "name": "蠍",
  "rating": 4.2,
  "reviews": 649,
  "lat": 35.5260665,
  "lng": 140.0891828,
  "genre": "ラーメン",
  "address": "五井５８００−８６",
  "placeId": "0x60229c1b153f4d69:0x2e988fd7a68e57ad",
  "mapsUrl": "https://www.google.com/maps?ftid=0x60229c1b153f4d69:0x2e988fd7a68e57ad&hl=ja",
  "region": "chiba"
 },
 {
  "name": "煮干しだし醤油ラーメン 桂",
  "rating": 4.2,
  "reviews": 622,
  "lat": 35.864588,
  "lng": 140.0251439,
  "genre": "ラーメン",
  "address": "若松１７０−６",
  "placeId": "0x6022771ba33d6577:0xf3ccc25495cdbefc",
  "mapsUrl": "https://www.google.com/maps?ftid=0x6022771ba33d6577:0xf3ccc25495cdbefc&hl=ja",
  "region": "toukatsu"
 },
 {
  "name": "鶏そば 朱雀（すざく）",
  "rating": 4.2,
  "reviews": 577,
  "lat": 35.7138793,
  "lng": 139.943559,
  "genre": "ラーメン",
  "address": "本中山３丁目１４−２１",
  "placeId": "0x601880d111d30001:0x80e5efa6d35ebce2",
  "mapsUrl": "https://www.google.com/maps?ftid=0x601880d111d30001:0x80e5efa6d35ebce2&hl=ja",
  "region": "keiyo"
 },
 {
  "name": "麺屋 いとう",
  "rating": 4.2,
  "reviews": 554,
  "lat": 35.7029352,
  "lng": 140.5500971,
  "genre": "ラーメン",
  "address": "八日市場イ２３７０−１",
  "placeId": "0x6022e500d7001437:0xf135fbc170fde1f3",
  "mapsUrl": "https://www.google.com/maps?ftid=0x6022e500d7001437:0xf135fbc170fde1f3&hl=ja",
  "region": "tosou"
 },
 {
  "name": "中国料理 鴨川食堂",
  "rating": 4.2,
  "reviews": 500,
  "lat": 35.1276127,
  "lng": 140.1926318,
  "genre": "ラーメン屋",
  "address": "",
  "placeId": "0x603d4d985d65dbd3:0x1bda06ffe103b7cd",
  "mapsUrl": "https://www.google.com/maps?ftid=0x603d4d985d65dbd3:0x1bda06ffe103b7cd&hl=ja",
  "region": "boso"
 },
 {
  "name": "東京担担麺本舗 ゴマ屋",
  "rating": 4.2,
  "reviews": 494,
  "lat": 35.6736131,
  "lng": 139.7925953,
  "genre": "ラーメン",
  "address": "永代２丁目３１−５ 内田ビル",
  "placeId": "0x6018896ca7f5dcc3:0x80c6bf61e96e7d88",
  "mapsUrl": "https://www.google.com/maps?ftid=0x6018896ca7f5dcc3:0x80c6bf61e96e7d88&hl=ja",
  "region": "tokyo"
 },
 {
  "name": "ラーメン みちのく",
  "rating": 4.2,
  "reviews": 472,
  "lat": 35.475915,
  "lng": 140.0516377,
  "genre": "ラーメン",
  "address": "姉崎２４０６−５",
  "placeId": "0x60229e505ae493c5:0xdea5f8c2f873f835",
  "mapsUrl": "https://www.google.com/maps?ftid=0x60229e505ae493c5:0xdea5f8c2f873f835&hl=ja",
  "region": "chiba"
 },
 {
  "name": "麺屋 ひぶた",
  "rating": 4.2,
  "reviews": 471,
  "lat": 35.8692159,
  "lng": 139.9540344,
  "genre": "ラーメン",
  "address": "篠籠田９６９−１",
  "placeId": "0x60189c8a525f0359:0xffc4e3a19cb9623b",
  "mapsUrl": "https://www.google.com/maps?ftid=0x60189c8a525f0359:0xffc4e3a19cb9623b&hl=ja",
  "region": "toukatsu"
 },
 {
  "name": "幸福軒",
  "rating": 4.2,
  "reviews": 468,
  "lat": 35.6081155,
  "lng": 140.1232254,
  "genre": "ラーメン",
  "address": "中央３丁目１３−１５",
  "placeId": "0x602284cac4440a37:0xe99b751f23a5d437",
  "mapsUrl": "https://www.google.com/maps?ftid=0x602284cac4440a37:0xe99b751f23a5d437&hl=ja",
  "region": "chiba"
 },
 {
  "name": "中国ラーメン栄",
  "rating": 4.2,
  "reviews": 438,
  "lat": 35.3767249,
  "lng": 139.9325788,
  "genre": "ラーメン",
  "address": "文京３丁目１−５０",
  "placeId": "0x60180ca8dc9b5f95:0xa521a2b1a158f887",
  "mapsUrl": "https://www.google.com/maps?ftid=0x60180ca8dc9b5f95:0xa521a2b1a158f887&hl=ja",
  "region": "boso"
 },
 {
  "name": "喜多方食堂 磯崎",
  "rating": 4.2,
  "reviews": 421,
  "lat": 35.6754873,
  "lng": 139.8589886,
  "genre": "ラーメン",
  "address": "北葛西２丁目２３−１９ 1階",
  "placeId": "0x6018875cc86a6f4f:0xddb7216c13042119",
  "mapsUrl": "https://www.google.com/maps?ftid=0x6018875cc86a6f4f:0xddb7216c13042119&hl=ja",
  "region": "tokyo"
 },
 {
  "name": "ダボハウス",
  "rating": 4.2,
  "reviews": 399,
  "lat": 35.4463503,
  "lng": 140.1133586,
  "genre": "ラーメン",
  "address": "光風台２丁目４",
  "placeId": "0x6022a21028ee1171:0x14d092752c698007",
  "mapsUrl": "https://www.google.com/maps?ftid=0x6022a21028ee1171:0x14d092752c698007&hl=ja",
  "region": "boso"
 },
 {
  "name": "Ramen Tunaholic Tokyo",
  "rating": 4.2,
  "reviews": 399,
  "lat": 35.6797177,
  "lng": 139.798939,
  "genre": "ラーメン",
  "address": "清澄３丁目３−２５",
  "placeId": "0x6018890f7305e8fd:0xcb09b1d5ec436cf7",
  "mapsUrl": "https://www.google.com/maps?ftid=0x6018890f7305e8fd:0xcb09b1d5ec436cf7&hl=ja",
  "region": "tokyo"
 },
 {
  "name": "北海道ラーメン温",
  "rating": 4.2,
  "reviews": 384,
  "lat": 35.6145445,
  "lng": 140.1091975,
  "genre": "ラーメン",
  "address": "新千葉２丁目８−１０",
  "placeId": "0x60228549c01a23e9:0x564cb8ddf85d26f7",
  "mapsUrl": "https://www.google.com/maps?ftid=0x60228549c01a23e9:0x564cb8ddf85d26f7&hl=ja",
  "region": "chiba"
 },
 {
  "name": "麺屋土竜 mogura tokyo(ramen)",
  "rating": 4.2,
  "reviews": 378,
  "lat": 35.6488619,
  "lng": 139.9147287,
  "genre": "ラーメン",
  "address": "入船１丁目４−１ イオン新浦安 4F",
  "placeId": "0x60187dc006349069:0x291bc937cd9f731b",
  "mapsUrl": "https://www.google.com/maps?ftid=0x60187dc006349069:0x291bc937cd9f731b&hl=ja",
  "region": "keiyo"
 },
 {
  "name": "華乃蔵",
  "rating": 4.2,
  "reviews": 371,
  "lat": 34.9865087,
  "lng": 139.9700797,
  "genre": "ラーメン",
  "address": "千倉町白子２７１３−１２",
  "placeId": "0x6017fcfbcb488c1f:0x8c90c4aafc7b1fd",
  "mapsUrl": "https://www.google.com/maps?ftid=0x6017fcfbcb488c1f:0x8c90c4aafc7b1fd&hl=ja",
  "region": "boso"
 },
 {
  "name": "菜",
  "rating": 4.2,
  "reviews": 365,
  "lat": 35.714342,
  "lng": 139.9297939,
  "genre": "ラーメン",
  "address": "南八幡２丁目４−１７",
  "placeId": "0x60188729da210001:0xd9471e19b84e5309",
  "mapsUrl": "https://www.google.com/maps?ftid=0x60188729da210001:0xd9471e19b84e5309&hl=ja",
  "region": "keiyo"
 },
 {
  "name": "中華そば たがや",
  "rating": 4.2,
  "reviews": 363,
  "lat": 35.6580124,
  "lng": 140.0542967,
  "genre": "ラーメン",
  "address": "幕張町５丁目４６５−１ リブポート幕張 101",
  "placeId": "0x602281fa6f60cdd9:0xfc2818720efbf16a",
  "mapsUrl": "https://www.google.com/maps?ftid=0x602281fa6f60cdd9:0xfc2818720efbf16a&hl=ja",
  "region": "keiyo"
 },
 {
  "name": "九州ラーメン日吉八重原店",
  "rating": 4.2,
  "reviews": 350,
  "lat": 35.3250018,
  "lng": 139.937272,
  "genre": "ラーメン",
  "address": "三直１３３３",
  "placeId": "0x60180c0a03a50441:0x9efeb3c87c8376a9",
  "mapsUrl": "https://www.google.com/maps?ftid=0x60180c0a03a50441:0x9efeb3c87c8376a9&hl=ja",
  "region": "boso"
 },
 {
  "name": "ラーメン ニュー松戸",
  "rating": 4.2,
  "reviews": 340,
  "lat": 35.7891582,
  "lng": 139.9305137,
  "genre": "ラーメン",
  "address": "稔台１丁目１−１７",
  "placeId": "0x60189b2265efd7e5:0xaa04fa4de492d1c7",
  "mapsUrl": "https://www.google.com/maps?ftid=0x60189b2265efd7e5:0xaa04fa4de492d1c7&hl=ja",
  "region": "toukatsu"
 },
 {
  "name": "麺家 燻",
  "rating": 4.2,
  "reviews": 339,
  "lat": 35.8032502,
  "lng": 139.9102093,
  "genre": "ラーメン",
  "address": "上本郷６１８−１ マンション第八松戸",
  "placeId": "0x601885d90cca73b3:0x18ac8472c6537896",
  "mapsUrl": "https://www.google.com/maps?ftid=0x601885d90cca73b3:0x18ac8472c6537896&hl=ja",
  "region": "toukatsu"
 },
 {
  "name": "手打 会津ラーメン 白虎",
  "rating": 4.2,
  "reviews": 327,
  "lat": 35.7175667,
  "lng": 140.6580419,
  "genre": "ラーメン",
  "address": "ロ１０５",
  "placeId": "0x6022e1b87d22a091:0x5d4bb2bee8e4f6f5",
  "mapsUrl": "https://www.google.com/maps?ftid=0x6022e1b87d22a091:0x5d4bb2bee8e4f6f5&hl=ja",
  "region": "tosou"
 },
 {
  "name": "麺座まねき",
  "rating": 4.2,
  "reviews": 313,
  "lat": 35.7987856,
  "lng": 139.9146143,
  "genre": "ラーメン",
  "address": "北松戸２丁目７−３",
  "placeId": "0x601884eae8a11f13:0xcfc8f62fccffa34d",
  "mapsUrl": "https://www.google.com/maps?ftid=0x601884eae8a11f13:0xcfc8f62fccffa34d&hl=ja",
  "region": "toukatsu"
 },
 {
  "name": "味噌らーめん 比田井",
  "rating": 4.2,
  "reviews": 313,
  "lat": 35.7156232,
  "lng": 140.1419427,
  "genre": "ラーメン",
  "address": "上志津１６２２−２",
  "placeId": "0x602286f7fcdf8b91:0xb928c93f18ae6de",
  "mapsUrl": "https://www.google.com/maps?ftid=0x602286f7fcdf8b91:0xb928c93f18ae6de&hl=ja",
  "region": "inba"
 },
 {
  "name": "RAGUMAN 2014",
  "rating": 4.2,
  "reviews": 297,
  "lat": 35.7144926,
  "lng": 140.2331505,
  "genre": "ラーメン",
  "address": "鏑木仲田町１１−２",
  "placeId": "0x60228eda913c20d5:0x43c767bc34bbbef4",
  "mapsUrl": "https://www.google.com/maps?ftid=0x60228eda913c20d5:0x43c767bc34bbbef4&hl=ja",
  "region": "inba"
 },
 {
  "name": "鶏節麺かびら",
  "rating": 4.2,
  "reviews": 296,
  "lat": 35.7128804,
  "lng": 139.8712124,
  "genre": "ラーメン",
  "address": "中央４丁目２１−１３",
  "placeId": "0x601887c57292a66d:0x4b326aa98eb1a717",
  "mapsUrl": "https://www.google.com/maps?ftid=0x601887c57292a66d:0x4b326aa98eb1a717&hl=ja",
  "region": "tokyo"
 },
 {
  "name": "らーめん矢",
  "rating": 4.2,
  "reviews": 293,
  "lat": 35.7525955,
  "lng": 140.0848295,
  "genre": "中華料理",
  "address": "桑橋７４８−１",
  "placeId": "0x60227e16ba72a721:0xd06eac473f61b3ee",
  "mapsUrl": "https://www.google.com/maps?ftid=0x60227e16ba72a721:0xd06eac473f61b3ee&hl=ja",
  "region": "toukatsu"
 },
 {
  "name": "らーめん元気",
  "rating": 4.2,
  "reviews": 293,
  "lat": 35.8516349,
  "lng": 140.1388379,
  "genre": "ラーメン",
  "address": "布佐３０６０−１２",
  "placeId": "0x60227bbdf78b285f:0x79755104c3d26bf2",
  "mapsUrl": "https://www.google.com/maps?ftid=0x60227bbdf78b285f:0x79755104c3d26bf2&hl=ja",
  "region": "inba"
 },
 {
  "name": "丸源ラーメン 江戸川鹿骨店",
  "rating": 4.2,
  "reviews": 286,
  "lat": 35.7070525,
  "lng": 139.888891,
  "genre": "ラーメン",
  "address": "鹿骨１丁目４０−６",
  "placeId": "0x6018870079d59b31:0x5912b112e3beb020",
  "mapsUrl": "https://www.google.com/maps?ftid=0x6018870079d59b31:0x5912b112e3beb020&hl=ja",
  "region": "tokyo"
 },
 {
  "name": "横浜家系ラーメン 吟家 成田店",
  "rating": 4.2,
  "reviews": 284,
  "lat": 35.779877,
  "lng": 140.3238541,
  "genre": "ラーメン",
  "address": "東町１０９−１",
  "placeId": "0x60228bebf01eb51d:0xb562132521d9769c",
  "mapsUrl": "https://www.google.com/maps?ftid=0x60228bebf01eb51d:0xb562132521d9769c&hl=ja",
  "region": "tosou"
 },
 {
  "name": "麺処 三虎（みとら）",
  "rating": 4.2,
  "reviews": 281,
  "lat": 35.7856783,
  "lng": 139.9002146,
  "genre": "ラーメン",
  "address": "本町２０−１０ ル・シーナビル B1",
  "placeId": "0x6018857569bf16f7:0x15f233ad6962e618",
  "mapsUrl": "https://www.google.com/maps?ftid=0x6018857569bf16f7:0x15f233ad6962e618&hl=ja",
  "region": "toukatsu"
 },
 {
  "name": "ひなたや",
  "rating": 4.2,
  "reviews": 277,
  "lat": 35.6742817,
  "lng": 139.8407964,
  "genre": "ラーメン",
  "address": "東砂６丁目１９−２ アデアムビル",
  "placeId": "0x60188864748115cb:0x9244ec53752a6781",
  "mapsUrl": "https://www.google.com/maps?ftid=0x60188864748115cb:0x9244ec53752a6781&hl=ja",
  "region": "tokyo"
 },
 {
  "name": "しののめヌードル",
  "rating": 4.2,
  "reviews": 277,
  "lat": 35.7017294,
  "lng": 139.8218046,
  "genre": "ラーメン",
  "address": "亀戸３丁目４５−１８ 1F",
  "placeId": "0x601889abca94d151:0x4fc229f240df60a2",
  "mapsUrl": "https://www.google.com/maps?ftid=0x601889abca94d151:0x4fc229f240df60a2&hl=ja",
  "region": "tokyo"
 },
 {
  "name": "らーめん食堂かみや",
  "rating": 4.2,
  "reviews": 276,
  "lat": 35.6809569,
  "lng": 139.8689436,
  "genre": "ラーメン",
  "address": "船堀５丁目１−６",
  "placeId": "0x601887c5f48ffc81:0x37242b82c3e16949",
  "mapsUrl": "https://www.google.com/maps?ftid=0x601887c5f48ffc81:0x37242b82c3e16949&hl=ja",
  "region": "tokyo"
 },
 {
  "name": "カキマゼヌードル チドリ",
  "rating": 4.2,
  "reviews": 276,
  "lat": 35.7081238,
  "lng": 139.8434835,
  "genre": "ラーメン",
  "address": "平井５丁目２５−６",
  "placeId": "0x601888b00c3fe019:0xb5c0b8c0976f6ed5",
  "mapsUrl": "https://www.google.com/maps?ftid=0x601888b00c3fe019:0xb5c0b8c0976f6ed5&hl=ja",
  "region": "tokyo"
 },
 {
  "name": "ラーメンのかどや",
  "rating": 4.2,
  "reviews": 264,
  "lat": 35.5485106,
  "lng": 140.1439466,
  "genre": "ラーメン",
  "address": "古市場町７２３−６",
  "placeId": "0x60229b11df4c0979:0xa2f94c57ab276222",
  "mapsUrl": "https://www.google.com/maps?ftid=0x60229b11df4c0979:0xa2f94c57ab276222&hl=ja",
  "region": "chiba"
 },
 {
  "name": "激旨麺厨房 劉",
  "rating": 4.2,
  "reviews": 255,
  "lat": 35.8350102,
  "lng": 139.946057,
  "genre": "ラーメン",
  "address": "中新宿１丁目５−５",
  "placeId": "0x60189d6d9958d2d1:0x4ff39af49fa812c1",
  "mapsUrl": "https://www.google.com/maps?ftid=0x60189d6d9958d2d1:0x4ff39af49fa812c1&hl=ja",
  "region": "toukatsu"
 },
 {
  "name": "焼きあご煮干しらぁめん はなかぜ～花風～",
  "rating": 4.2,
  "reviews": 248,
  "lat": 35.6521711,
  "lng": 140.0721729,
  "genre": "ラーメン",
  "address": "花園１丁目８−８",
  "placeId": "0x602283d3bda3f933:0xd6ff24c6df619654",
  "mapsUrl": "https://www.google.com/maps?ftid=0x602283d3bda3f933:0xd6ff24c6df619654&hl=ja",
  "region": "keiyo"
 },
 {
  "name": "ラーメン旭日",
  "rating": 4.2,
  "reviews": 242,
  "lat": 35.45779,
  "lng": 140.123445,
  "genre": "ラーメン",
  "address": "山田７５６−１−４",
  "placeId": "0x6022a2751b52ab51:0xfe49161bfb198ccc",
  "mapsUrl": "https://www.google.com/maps?ftid=0x6022a2751b52ab51:0xfe49161bfb198ccc&hl=ja",
  "region": "chiba"
 },
 {
  "name": "〒266-0004 千葉県千葉市緑区平川町ラーメンサンキュー",
  "rating": 4.2,
  "reviews": 242,
  "lat": 35.541839,
  "lng": 140.2342822,
  "genre": "ラーメン",
  "address": "山田７５６−１−４",
  "placeId": "0x602296f823822897:0xac6e7bedb1cd3c6b",
  "mapsUrl": "https://www.google.com/maps?ftid=0x602296f823822897:0xac6e7bedb1cd3c6b&hl=ja",
  "region": "chiba"
 },
 {
  "name": "麺屋 あお空",
  "rating": 4.2,
  "reviews": 235,
  "lat": 35.5747205,
  "lng": 140.168431,
  "genre": "ラーメン",
  "address": "赤井町７４５−３",
  "placeId": "0x60229b0009c724a5:0x2209e8da020b2458",
  "mapsUrl": "https://www.google.com/maps?ftid=0x60229b0009c724a5:0x2209e8da020b2458&hl=ja",
  "region": "chiba"
 },
 {
  "name": "ゆき",
  "rating": 4.2,
  "reviews": 233,
  "lat": 35.442821,
  "lng": 140.001436,
  "genre": "ラーメン",
  "address": "蔵波台７丁目１１−２１",
  "placeId": "0x6018757399d546d3:0x766fe81af2013c6d",
  "mapsUrl": "https://www.google.com/maps?ftid=0x6018757399d546d3:0x766fe81af2013c6d&hl=ja",
  "region": "boso"
 },
 {
  "name": "麺屋いとう東金店",
  "rating": 4.2,
  "reviews": 226,
  "lat": 35.5827178,
  "lng": 140.38648,
  "genre": "ラーメン",
  "address": "家之子７９８−１",
  "placeId": "0x6022ebba30062a4d:0xbc94477307f6c82f",
  "mapsUrl": "https://www.google.com/maps?ftid=0x6022ebba30062a4d:0xbc94477307f6c82f&hl=ja",
  "region": "tosou"
 },
 {
  "name": "館山ラスカル",
  "rating": 4.2,
  "reviews": 219,
  "lat": 35.0308909,
  "lng": 139.8456324,
  "genre": "ラーメン",
  "address": "船形６３８−１",
  "placeId": "0x6017f7c8e95cf3f1:0x565b60f7941394e3",
  "mapsUrl": "https://www.google.com/maps?ftid=0x6017f7c8e95cf3f1:0x565b60f7941394e3&hl=ja",
  "region": "boso"
 },
 {
  "name": "金須屋 担担麺 梨圓",
  "rating": 4.2,
  "reviews": 204,
  "lat": 35.8232037,
  "lng": 139.9404175,
  "genre": "担々麺屋",
  "address": "小金原４丁目２４−６",
  "placeId": "0x601883f009d5db95:0xadde48020195ddeb",
  "mapsUrl": "https://www.google.com/maps?ftid=0x601883f009d5db95:0xadde48020195ddeb&hl=ja",
  "region": "toukatsu"
 },
 {
  "name": "兼吉",
  "rating": 4.2,
  "reviews": 202,
  "lat": 35.6907187,
  "lng": 139.8373844,
  "genre": "ラーメン",
  "address": "大島６丁目２７−６ サンハイツ 105号",
  "placeId": "0x601888939a183e2d:0xfb530c54d5932709",
  "mapsUrl": "https://www.google.com/maps?ftid=0x601888939a183e2d:0xfb530c54d5932709&hl=ja",
  "region": "tokyo"
 },
 {
  "name": "横浜らーめん てんぐ",
  "rating": 4.2,
  "reviews": 202,
  "lat": 35.698546,
  "lng": 139.8233477,
  "genre": "ラーメン",
  "address": "亀戸２丁目１４−６ 島村ビル",
  "placeId": "0x601889732e9446e9:0x66f9952f15236667",
  "mapsUrl": "https://www.google.com/maps?ftid=0x601889732e9446e9:0x66f9952f15236667&hl=ja",
  "region": "tokyo"
 },
 {
  "name": "もりむら",
  "rating": 4.2,
  "reviews": 199,
  "lat": 35.332452,
  "lng": 140.3370961,
  "genre": "ラーメン",
  "address": "岬町岩熊１２７２",
  "placeId": "0x6022b6106e38b30b:0x9518b0de8816b693",
  "mapsUrl": "https://www.google.com/maps?ftid=0x6022b6106e38b30b:0x9518b0de8816b693&hl=ja",
  "region": "boso"
 },
 {
  "name": "麺将 松風",
  "rating": 4.2,
  "reviews": 196,
  "lat": 35.623903,
  "lng": 140.103074,
  "genre": "ラーメン",
  "address": "弥生町２−１５ 高田ビル 1F",
  "placeId": "0x602285057c47001b:0xb94bc48d3843d646",
  "mapsUrl": "https://www.google.com/maps?ftid=0x602285057c47001b:0xb94bc48d3843d646&hl=ja",
  "region": "chiba"
 },
 {
  "name": "麺食道 孝作",
  "rating": 4.2,
  "reviews": 188,
  "lat": 35.8170627,
  "lng": 139.948835,
  "genre": "ラーメン",
  "address": "小金原６丁目８−９",
  "placeId": "0x6018833ca1c4ed1f:0x72aaf4d0ba03b9f9",
  "mapsUrl": "https://www.google.com/maps?ftid=0x6018833ca1c4ed1f:0x72aaf4d0ba03b9f9&hl=ja",
  "region": "toukatsu"
 },
 {
  "name": "ラーメン屋ＳＵＮ",
  "rating": 4.2,
  "reviews": 187,
  "lat": 35.682887,
  "lng": 140.388497,
  "genre": "ラーメン",
  "address": "十倉７５１−３",
  "placeId": "0x6022ed0794a0485b:0x47462839925e790d",
  "mapsUrl": "https://www.google.com/maps?ftid=0x6022ed0794a0485b:0x47462839925e790d&hl=ja",
  "region": "tosou"
 },
 {
  "name": "らぁ麺 ろく壱",
  "rating": 4.2,
  "reviews": 182,
  "lat": 35.7560984,
  "lng": 140.2984045,
  "genre": "ラーメン",
  "address": "公津の杜３丁目37−３ メゾン・ド・ビュー 102",
  "placeId": "0x60228b50a3a57ad1:0xa52f874872a8a6d1",
  "mapsUrl": "https://www.google.com/maps?ftid=0x60228b50a3a57ad1:0xa52f874872a8a6d1&hl=ja",
  "region": "inba"
 },
 {
  "name": "ラーメン 太陽",
  "rating": 4.2,
  "reviews": 180,
  "lat": 35.6253884,
  "lng": 140.0997796,
  "genre": "ラーメン",
  "address": "緑町１丁目２６−３ 金澤商事",
  "placeId": "0x60228362b68c973d:0xf9f72bec2d2d6dc2",
  "mapsUrl": "https://www.google.com/maps?ftid=0x60228362b68c973d:0xf9f72bec2d2d6dc2&hl=ja",
  "region": "chiba"
 },
 {
  "name": "Ramen126",
  "rating": 4.2,
  "reviews": 175,
  "lat": 35.6826093,
  "lng": 139.9102989,
  "genre": "ラーメン",
  "address": "湊新田１丁目２−６ ラコス・カサ",
  "placeId": "0x601887001ad80bb1:0x3ee90a86d323468f",
  "mapsUrl": "https://www.google.com/maps?ftid=0x601887001ad80bb1:0x3ee90a86d323468f&hl=ja",
  "region": "keiyo"
 },
 {
  "name": "〒266-0026 千葉県千葉市緑区古市場町らーめん旭郎山",
  "rating": 4.2,
  "reviews": 173,
  "lat": 35.5460741,
  "lng": 140.1475165,
  "genre": "弁当製造業者",
  "address": "南国分寺台５丁目2−５",
  "placeId": "0x60229a296345393b:0x8fdd926501e626f2",
  "mapsUrl": "https://www.google.com/maps?ftid=0x60229a296345393b:0x8fdd926501e626f2&hl=ja",
  "region": "chiba"
 },
 {
  "name": "〒266-0033 千葉県千葉市緑区おゆみ野南６丁目１５−９ らーめん流神",
  "rating": 4.2,
  "reviews": 173,
  "lat": 35.5420885,
  "lng": 140.1854177,
  "genre": "弁当製造業者",
  "address": "南国分寺台５丁目2−５",
  "placeId": "0x6022975f06dd9ba3:0x60c584e2f673f2f1",
  "mapsUrl": "https://www.google.com/maps?ftid=0x6022975f06dd9ba3:0x60c584e2f673f2f1&hl=ja",
  "region": "chiba"
 },
 {
  "name": "ラーメン むさし",
  "rating": 4.2,
  "reviews": 173,
  "lat": 34.9917614,
  "lng": 139.8621982,
  "genre": "ラーメン",
  "address": "北条２５７８−１",
  "placeId": "0x6017f9fbcd97cf6b:0x8d9faa5de2e6d831",
  "mapsUrl": "https://www.google.com/maps?ftid=0x6017f9fbcd97cf6b:0x8d9faa5de2e6d831&hl=ja",
  "region": "boso"
 },
 {
  "name": "萬来",
  "rating": 4.2,
  "reviews": 172,
  "lat": 35.7045345,
  "lng": 139.862097,
  "genre": "ラーメン",
  "address": "松島２丁目１６−１７",
  "placeId": "0x6018862259608193:0x94be83ada63e7154",
  "mapsUrl": "https://www.google.com/maps?ftid=0x6018862259608193:0x94be83ada63e7154&hl=ja",
  "region": "tokyo"
 },
 {
  "name": "やきや",
  "rating": 4.2,
  "reviews": 162,
  "lat": 35.6012727,
  "lng": 140.1226401,
  "genre": "ラーメン",
  "address": "長洲２丁目７−２",
  "placeId": "0x60229b363e4b6581:0x239410fcf0381f6b",
  "mapsUrl": "https://www.google.com/maps?ftid=0x60229b363e4b6581:0x239410fcf0381f6b&hl=ja",
  "region": "chiba"
 },
 {
  "name": "信心",
  "rating": 4.2,
  "reviews": 159,
  "lat": 35.418297,
  "lng": 140.2878732,
  "genre": "ラーメン",
  "address": "早野１４１３",
  "placeId": "0x6022b90b6206526d:0x703ae39dd5fb3fd8",
  "mapsUrl": "https://www.google.com/maps?ftid=0x6022b90b6206526d:0x703ae39dd5fb3fd8&hl=ja",
  "region": "boso"
 },
 {
  "name": "ラーメン庵",
  "rating": 4.2,
  "reviews": 143,
  "lat": 35.7785338,
  "lng": 140.0721864,
  "genre": "ラーメン",
  "address": "小野田町１４０８−２",
  "placeId": "0x60227ef050db43d1:0xf33013592a282ff7",
  "mapsUrl": "https://www.google.com/maps?ftid=0x60227ef050db43d1:0xf33013592a282ff7&hl=ja",
  "region": "toukatsu"
 },
 {
  "name": "家系ラーメン わっちん",
  "rating": 4.2,
  "reviews": 143,
  "lat": 35.778381,
  "lng": 140.3242182,
  "genre": "ラーメン",
  "address": "東町１２７−４",
  "placeId": "0x60228b007c4288cd:0x24e5d2ffde37c582",
  "mapsUrl": "https://www.google.com/maps?ftid=0x60228b007c4288cd:0x24e5d2ffde37c582&hl=ja",
  "region": "tosou"
 },
 {
  "name": "博多屋台ラーメン 壱弐参 ONE-TWO-THREE",
  "rating": 4.2,
  "reviews": 141,
  "lat": 35.6625327,
  "lng": 140.4758731,
  "genre": "ラーメン",
  "address": "横芝１１７−１",
  "placeId": "0x6022e98651d51cc7:0xd7dd88722c45a5d2",
  "mapsUrl": "https://www.google.com/maps?ftid=0x6022e98651d51cc7:0xd7dd88722c45a5d2&hl=ja",
  "region": "tosou"
 },
 {
  "name": "らーめん味来",
  "rating": 4.2,
  "reviews": 135,
  "lat": 35.7131963,
  "lng": 140.1289046,
  "genre": "ラーメン",
  "address": "勝田台１丁目35−２４",
  "placeId": "0x602287dcef79d577:0x7a0e5ef7c7b5b014",
  "mapsUrl": "https://www.google.com/maps?ftid=0x602287dcef79d577:0x7a0e5ef7c7b5b014&hl=ja",
  "region": "inba"
 },
 {
  "name": "和風魚介出汁創作麺処 後関",
  "rating": 4.2,
  "reviews": 129,
  "lat": 35.7044935,
  "lng": 139.9615151,
  "genre": "ラーメン",
  "address": "山野町４１ ホワイトパレス 103",
  "placeId": "0x60188100591a6459:0xd8871ee737d2b18d",
  "mapsUrl": "https://www.google.com/maps?ftid=0x60188100591a6459:0xd8871ee737d2b18d&hl=ja",
  "region": "keiyo"
 },
 {
  "name": "ラーメンパーク あずーる",
  "rating": 4.2,
  "reviews": 122,
  "lat": 35.6824084,
  "lng": 139.8631859,
  "genre": "ラーメン",
  "address": "船堀３丁目２−７ 岩井ビル",
  "placeId": "0x6018870045ad7723:0x7496a09ac0db0c0f",
  "mapsUrl": "https://www.google.com/maps?ftid=0x6018870045ad7723:0x7496a09ac0db0c0f&hl=ja",
  "region": "tokyo"
 },
 {
  "name": "ラーメン光",
  "rating": 4.2,
  "reviews": 117,
  "lat": 35.8079345,
  "lng": 139.9965314,
  "genre": "ラーメン",
  "address": "高柳１８",
  "placeId": "0x6018825da765aaab:0x23d10ad360cec117",
  "mapsUrl": "https://www.google.com/maps?ftid=0x6018825da765aaab:0x23d10ad360cec117&hl=ja",
  "region": "toukatsu"
 },
 {
  "name": "むぎとオリーブ蝋燭屋 成田空港",
  "rating": 4.2,
  "reviews": 117,
  "lat": 35.7733785,
  "lng": 140.388916,
  "genre": "ラーメン",
  "address": "古込１−１ 第二ターミナルビル",
  "placeId": "0x6022f3b56951576b:0x926959fb22fc8f89",
  "mapsUrl": "https://www.google.com/maps?ftid=0x6022f3b56951576b:0x926959fb22fc8f89&hl=ja",
  "region": "tosou"
 },
 {
  "name": "自家製麺いけだ",
  "rating": 4.2,
  "reviews": 112,
  "lat": 35.6607194,
  "lng": 140.0556415,
  "genre": "ラーメン",
  "address": "幕張町４丁目６０１−４ 穴倉コーポ 101",
  "placeId": "0x602281d9ec4c93c5:0x3d8c5bab3b5e6432",
  "mapsUrl": "https://www.google.com/maps?ftid=0x602281d9ec4c93c5:0x3d8c5bab3b5e6432&hl=ja",
  "region": "keiyo"
 },
 {
  "name": "らぁ麺 富士虎屋",
  "rating": 4.2,
  "reviews": 106,
  "lat": 35.6115047,
  "lng": 140.4235309,
  "genre": "ラーメン",
  "address": "富田ト４８２",
  "placeId": "0x6022ea2c48d361e5:0xbe277010305e2796",
  "mapsUrl": "https://www.google.com/maps?ftid=0x6022ea2c48d361e5:0xbe277010305e2796&hl=ja",
  "region": "tosou"
 },
 {
  "name": "萬来軒",
  "rating": 4.2,
  "reviews": 105,
  "lat": 35.657652,
  "lng": 139.8667011,
  "genre": "ラーメン",
  "address": "中葛西７丁目２３−２",
  "placeId": "0x601887f0ce53d9f1:0x109319d0c138fae3",
  "mapsUrl": "https://www.google.com/maps?ftid=0x601887f0ce53d9f1:0x109319d0c138fae3&hl=ja",
  "region": "tokyo"
 },
 {
  "name": "中華そばたがや 幕張本郷店",
  "rating": 4.2,
  "reviews": 98,
  "lat": 35.6704298,
  "lng": 140.0425768,
  "genre": "ラーメン",
  "address": "ソフトライフ幕張本郷ビル 1F, ２丁目-６-１８ 幕張本郷",
  "placeId": "0x602281007911af57:0xa07f46d57d6213a1",
  "mapsUrl": "https://www.google.com/maps?ftid=0x602281007911af57:0xa07f46d57d6213a1&hl=ja",
  "region": "keiyo"
 },
 {
  "name": "Neighbor's Ramen Shop 綾海１０５",
  "rating": 4.2,
  "reviews": 98,
  "lat": 35.7304061,
  "lng": 140.4675216,
  "genre": "ラーメン",
  "address": "多古１５１７−３",
  "placeId": "0x6022ef560735dadf:0xf03f293bf02dfddc",
  "mapsUrl": "https://www.google.com/maps?ftid=0x6022ef560735dadf:0xf03f293bf02dfddc&hl=ja",
  "region": "tosou"
 },
 {
  "name": "ラーメンショップ◯化 成東店",
  "rating": 4.2,
  "reviews": 94,
  "lat": 35.5887201,
  "lng": 140.3915117,
  "genre": "ラーメン",
  "address": "姫島１７４",
  "placeId": "0x6022eb191d33644b:0x534d85855add7c8c",
  "mapsUrl": "https://www.google.com/maps?ftid=0x6022eb191d33644b:0x534d85855add7c8c&hl=ja",
  "region": "tosou"
 },
 {
  "name": "まめまる",
  "rating": 4.2,
  "reviews": 78,
  "lat": 35.82533,
  "lng": 139.9354021,
  "genre": "ラーメン",
  "address": "小金きよしケ丘４丁目15−１",
  "placeId": "0x601885004874cefb:0x8a05915a95ae01fb",
  "mapsUrl": "https://www.google.com/maps?ftid=0x601885004874cefb:0x8a05915a95ae01fb&hl=ja",
  "region": "toukatsu"
 },
 {
  "name": "北海道らーめん蛍火",
  "rating": 4.2,
  "reviews": 77,
  "lat": 35.7213141,
  "lng": 139.9309978,
  "genre": "ラーメン",
  "address": "八幡１丁目１６−３",
  "placeId": "0x6018870cf43b8615:0x17721c2bc5f332d4",
  "mapsUrl": "https://www.google.com/maps?ftid=0x6018870cf43b8615:0x17721c2bc5f332d4&hl=ja",
  "region": "toukatsu"
 },
 {
  "name": "食事処 味はな",
  "rating": 4.2,
  "reviews": 75,
  "lat": 35.1673677,
  "lng": 139.8221489,
  "genre": "ラーメン",
  "address": "金谷２２０２−１",
  "placeId": "0x60181af1b26f9b19:0x8a38e72e57724575",
  "mapsUrl": "https://www.google.com/maps?ftid=0x60181af1b26f9b19:0x8a38e72e57724575&hl=ja",
  "region": "boso"
 },
 {
  "name": "元祖油堂 松戸東口店",
  "rating": 4.2,
  "reviews": 71,
  "lat": 35.7843597,
  "lng": 139.9014163,
  "genre": "ラーメン",
  "address": "松戸１１７６−１３ 秀姫ビル 一階",
  "placeId": "0x6018850007c351b9:0xfcc584d124575f4c",
  "mapsUrl": "https://www.google.com/maps?ftid=0x6018850007c351b9:0xfcc584d124575f4c&hl=ja",
  "region": "toukatsu"
 },
 {
  "name": "かわらや食堂",
  "rating": 4.2,
  "reviews": 70,
  "lat": 35.3072575,
  "lng": 140.067871,
  "genre": "ラーメン",
  "address": "青柳６１３",
  "placeId": "0x6022a70eb079de4b:0xcb038eb6d36259b0",
  "mapsUrl": "https://www.google.com/maps?ftid=0x6022a70eb079de4b:0xcb038eb6d36259b0&hl=ja",
  "region": "boso"
 },
 {
  "name": "鶏の骨",
  "rating": 4.2,
  "reviews": 68,
  "lat": 35.7792485,
  "lng": 140.3147868,
  "genre": "ラーメン",
  "address": "花崎町８４６−１５",
  "placeId": "0x60228b0dd2f4400b:0xc62e86f1d4a0f29",
  "mapsUrl": "https://www.google.com/maps?ftid=0x60228b0dd2f4400b:0xc62e86f1d4a0f29&hl=ja",
  "region": "tosou"
 },
 {
  "name": "ラーメンらんぽ",
  "rating": 4.2,
  "reviews": 61,
  "lat": 35.1143333,
  "lng": 140.1130414,
  "genre": "ラーメン",
  "address": "広場９７０",
  "placeId": "0x603d538f7a9f4621:0xdac3107bde93be98",
  "mapsUrl": "https://www.google.com/maps?ftid=0x603d538f7a9f4621:0xdac3107bde93be98&hl=ja",
  "region": "boso"
 },
 {
  "name": "天好",
  "rating": 4.2,
  "reviews": 53,
  "lat": 35.7710948,
  "lng": 140.3022512,
  "genre": "ラーメン",
  "address": "南平台１１６９−１７",
  "placeId": "0x60228ba1f3c7a1ff:0xaacd7c184fdc77a9",
  "mapsUrl": "https://www.google.com/maps?ftid=0x60228ba1f3c7a1ff:0xaacd7c184fdc77a9&hl=ja",
  "region": "tosou"
 },
 {
  "name": "ラーメンかいざん 本店",
  "rating": 4.1,
  "reviews": 2834,
  "lat": 35.6948018,
  "lng": 140.0084051,
  "genre": "ラーメン",
  "address": "谷津６丁目２１−４",
  "placeId": "0x60187ff207ec701f:0x281de3730a931cb8",
  "mapsUrl": "https://www.google.com/maps?ftid=0x60187ff207ec701f:0x281de3730a931cb8&hl=ja",
  "region": "keiyo"
 },
 {
  "name": "大島",
  "rating": 4.1,
  "reviews": 2774,
  "lat": 35.6795813,
  "lng": 139.8699804,
  "genre": "ラーメン",
  "address": "船堀６丁目７−１３",
  "placeId": "0x601887c5d228d613:0xedf5e22e8a659241",
  "mapsUrl": "https://www.google.com/maps?ftid=0x601887c5d228d613:0xedf5e22e8a659241&hl=ja",
  "region": "tokyo"
 },
 {
  "name": "元祖勝浦式担々麺 江ざわ",
  "rating": 4.1,
  "reviews": 2687,
  "lat": 35.1972883,
  "lng": 140.287684,
  "genre": "ラーメン",
  "address": "白井久保２９６−８",
  "placeId": "0x60180042337680cd:0x5444b42345ac3f77",
  "mapsUrl": "https://www.google.com/maps?ftid=0x60180042337680cd:0x5444b42345ac3f77&hl=ja",
  "region": "boso"
 },
 {
  "name": "中華蕎麦 とみ田",
  "rating": 4.1,
  "reviews": 1844,
  "lat": 35.7818,
  "lng": 139.9009632,
  "genre": "ラーメン",
  "address": "松戸１３３９ 高橋ビル",
  "placeId": "0x601884fbf8347261:0x902b540484a1835c",
  "mapsUrl": "https://www.google.com/maps?ftid=0x601884fbf8347261:0x902b540484a1835c&hl=ja",
  "region": "toukatsu"
 },
 {
  "name": "とら食堂 松戸分店",
  "rating": 4.1,
  "reviews": 1837,
  "lat": 35.7759798,
  "lng": 139.9578273,
  "genre": "ラーメン",
  "address": "紙敷１丁目８−６",
  "placeId": "0x601883c203328c5f:0x9f34c48d029ed7e2",
  "mapsUrl": "https://www.google.com/maps?ftid=0x601883c203328c5f:0x9f34c48d029ed7e2&hl=ja",
  "region": "toukatsu"
 },
 {
  "name": "ラーメン 菜苑",
  "rating": 4.1,
  "reviews": 1811,
  "lat": 35.701595,
  "lng": 139.8198063,
  "genre": "ラーメン",
  "address": "亀戸３丁目１−８ 飯沼ビル",
  "placeId": "0x601888d139275ce5:0x54f940a4eff2d5f0",
  "mapsUrl": "https://www.google.com/maps?ftid=0x601888d139275ce5:0x54f940a4eff2d5f0&hl=ja",
  "region": "tokyo"
 },
 {
  "name": "麺場 田所商店 武石本店",
  "rating": 4.1,
  "reviews": 1686,
  "lat": 35.6712961,
  "lng": 140.0647341,
  "genre": "ラーメン",
  "address": "武石町１丁目２２７−１",
  "placeId": "0x6022817431beca49:0xa3a712269c14d3ca",
  "mapsUrl": "https://www.google.com/maps?ftid=0x6022817431beca49:0xa3a712269c14d3ca&hl=ja",
  "region": "keiyo"
 },
 {
  "name": "二九八家 いわせ",
  "rating": 4.1,
  "reviews": 1577,
  "lat": 35.714802,
  "lng": 139.9166306,
  "genre": "ラーメン",
  "address": "大和田３丁目２３−１１",
  "placeId": "0x601886dd8b614abd:0xa56e2ee8225e1dfa",
  "mapsUrl": "https://www.google.com/maps?ftid=0x601886dd8b614abd:0xa56e2ee8225e1dfa&hl=ja",
  "region": "keiyo"
 },
 {
  "name": "中華そば金ちゃん",
  "rating": 4.1,
  "reviews": 1436,
  "lat": 35.7170955,
  "lng": 140.0922192,
  "genre": "ラーメン",
  "address": "高津東２丁目12−４",
  "placeId": "0x602280ccc7c41e0b:0x38dc523faff22218",
  "mapsUrl": "https://www.google.com/maps?ftid=0x602280ccc7c41e0b:0x38dc523faff22218&hl=ja",
  "region": "chiba"
 },
 {
  "name": "ラーメン BooBoo太郎。",
  "rating": 4.1,
  "reviews": 1240,
  "lat": 35.606108,
  "lng": 140.121489,
  "genre": "ラーメン",
  "address": "中央４丁目１３−２１",
  "placeId": "0x60229b4aa8044821:0xc97895c1d04e7b1",
  "mapsUrl": "https://www.google.com/maps?ftid=0x60229b4aa8044821:0xc97895c1d04e7b1&hl=ja",
  "region": "chiba"
 },
 {
  "name": "らーめん純輝 白井店",
  "rating": 4.1,
  "reviews": 1169,
  "lat": 35.8050174,
  "lng": 140.0451308,
  "genre": "ラーメン",
  "address": "折立５９１−２０",
  "placeId": "0x602278c8ca2d4f95:0x2fcff01aaec2f478",
  "mapsUrl": "https://www.google.com/maps?ftid=0x602278c8ca2d4f95:0x2fcff01aaec2f478&hl=ja",
  "region": "toukatsu"
 },
 {
  "name": "元祖おかず系ラーメン 肉玉そばおとど 北松戸店",
  "rating": 4.1,
  "reviews": 1159,
  "lat": 35.800477,
  "lng": 139.9123958,
  "genre": "ラーメン",
  "address": "上本郷９０１ 鈴木ビル １Ｆ",
  "placeId": "0x601884c1c217ffb1:0xa6bc209347c73f8b",
  "mapsUrl": "https://www.google.com/maps?ftid=0x601884c1c217ffb1:0xa6bc209347c73f8b&hl=ja",
  "region": "toukatsu"
 },
 {
  "name": "横浜ラーメン寺田家",
  "rating": 4.1,
  "reviews": 1118,
  "lat": 35.8079923,
  "lng": 140.0396508,
  "genre": "ラーメン",
  "address": "折立４７８−１１",
  "placeId": "0x602278c75e98efb1:0x24a4027d5936b872",
  "mapsUrl": "https://www.google.com/maps?ftid=0x602278c75e98efb1:0x24a4027d5936b872&hl=ja",
  "region": "toukatsu"
 },
 {
  "name": "ラーメン 杉田家 千葉駅前店",
  "rating": 4.1,
  "reviews": 1099,
  "lat": 35.6097395,
  "lng": 140.1212732,
  "genre": "ラーメン",
  "address": "中央２丁目２−６ マコトヤビル 1F",
  "placeId": "0x6022855db193fa45:0x9f2fa67d532e5533",
  "mapsUrl": "https://www.google.com/maps?ftid=0x6022855db193fa45:0x9f2fa67d532e5533&hl=ja",
  "region": "chiba"
 },
 {
  "name": "らーめん からしや",
  "rating": 4.1,
  "reviews": 1053,
  "lat": 35.6665679,
  "lng": 139.8717272,
  "genre": "ラーメン",
  "address": "中葛西３丁目２６−６",
  "placeId": "0x601887ec48ba7ce7:0xd3cd3f195a808555",
  "mapsUrl": "https://www.google.com/maps?ftid=0x601887ec48ba7ce7:0xd3cd3f195a808555&hl=ja",
  "region": "tokyo"
 },
 {
  "name": "寿ラーメン",
  "rating": 4.1,
  "reviews": 943,
  "lat": 35.4231868,
  "lng": 139.9543274,
  "genre": "ラーメン",
  "address": "坂戸市場１４３９−８",
  "placeId": "0x6018748ea99fbe61:0x530e517d14e62a7a",
  "mapsUrl": "https://www.google.com/maps?ftid=0x6018748ea99fbe61:0x530e517d14e62a7a&hl=ja",
  "region": "boso"
 },
 {
  "name": "中華そば 亀喜屋",
  "rating": 4.1,
  "reviews": 931,
  "lat": 35.6252287,
  "lng": 140.235851,
  "genre": "ラーメン",
  "address": "上泉町６１６−４ 字堂地６１６−４",
  "placeId": "0x602291babf09cef3:0x1a04dc65553615ec",
  "mapsUrl": "https://www.google.com/maps?ftid=0x602291babf09cef3:0x1a04dc65553615ec&hl=ja",
  "region": "chiba"
 },
 {
  "name": "ラーメン二郎 小岩店",
  "rating": 4.1,
  "reviews": 862,
  "lat": 35.7349589,
  "lng": 139.8800087,
  "genre": "ラーメン",
  "address": "西小岩３丁目３１−１４",
  "placeId": "0x601885deca1e2881:0x96e79d931a3bc8d2",
  "mapsUrl": "https://www.google.com/maps?ftid=0x601885deca1e2881:0x96e79d931a3bc8d2&hl=ja",
  "region": "tokyo"
 },
 {
  "name": "こばやし 中華そば",
  "rating": 4.1,
  "reviews": 826,
  "lat": 35.6090616,
  "lng": 140.1179807,
  "genre": "ラーメン屋",
  "address": "富士見２丁目１６−２６ マルエイビル 1F",
  "placeId": "0x602285000360ac6b:0x2c2e8f4393facbc3",
  "mapsUrl": "https://www.google.com/maps?ftid=0x602285000360ac6b:0x2c2e8f4393facbc3&hl=ja",
  "region": "chiba"
 },
 {
  "name": "東京油組総本店 千葉C･one組",
  "rating": 4.1,
  "reviews": 826,
  "lat": 35.6090704,
  "lng": 140.117015,
  "genre": "ラーメン屋",
  "address": "富士見２丁目２４−１",
  "placeId": "0x6022850008fa6599:0x6d14b03be52f52e0",
  "mapsUrl": "https://www.google.com/maps?ftid=0x6022850008fa6599:0x6d14b03be52f52e0&hl=ja",
  "region": "chiba"
 },
 {
  "name": "だるま",
  "rating": 4.1,
  "reviews": 826,
  "lat": 35.642134,
  "lng": 140.1342696,
  "genre": "ラーメン屋",
  "address": "みつわ台４丁目１６−４",
  "placeId": "0x6022859decba3685:0xb056354d5a128812",
  "mapsUrl": "https://www.google.com/maps?ftid=0x6022859decba3685:0xb056354d5a128812&hl=ja",
  "region": "chiba"
 },
 {
  "name": "鶏そば屋 庄助 蘇我店",
  "rating": 4.1,
  "reviews": 826,
  "lat": 35.5935317,
  "lng": 140.1202817,
  "genre": "ラーメン屋",
  "address": "寒川町２丁目２００−１",
  "placeId": "0x60229b007284dcab:0xbb75b9131b10e529",
  "mapsUrl": "https://www.google.com/maps?ftid=0x60229b007284dcab:0xbb75b9131b10e529&hl=ja",
  "region": "chiba"
 },
 {
  "name": "らーめん専科 海空土",
  "rating": 4.1,
  "reviews": 826,
  "lat": 35.6412717,
  "lng": 140.1465968,
  "genre": "ラーメン",
  "address": "都賀の台４丁目５−１５",
  "placeId": "0x6022851c700467e1:0xb1caf50a3fa06648",
  "mapsUrl": "https://www.google.com/maps?ftid=0x6022851c700467e1:0xb1caf50a3fa06648&hl=ja",
  "region": "chiba"
 },
 {
  "name": "中華そば まるき",
  "rating": 4.1,
  "reviews": 800,
  "lat": 35.7875162,
  "lng": 139.9046405,
  "genre": "ラーメン",
  "address": "小根本５１−２ １Ｆ",
  "placeId": "0x601884e54a9f13f5:0xe6c51581e21cf893",
  "mapsUrl": "https://www.google.com/maps?ftid=0x601884e54a9f13f5:0xe6c51581e21cf893&hl=ja",
  "region": "toukatsu"
 },
 {
  "name": "横浜寺田家 北柏店",
  "rating": 4.1,
  "reviews": 777,
  "lat": 35.8697446,
  "lng": 139.9895411,
  "genre": "ラーメン",
  "address": "北柏３丁目２１−７",
  "placeId": "0x60189d170c1b4e29:0x513c62f298c28360",
  "mapsUrl": "https://www.google.com/maps?ftid=0x60189d170c1b4e29:0x513c62f298c28360&hl=ja",
  "region": "toukatsu"
 },
 {
  "name": "つけ麺 ｢鼈｣",
  "rating": 4.1,
  "reviews": 771,
  "lat": 35.7330521,
  "lng": 139.882462,
  "genre": "ラーメン",
  "address": "南小岩７丁目２７−７",
  "placeId": "0x601885d885a0b68d:0xe8e807dc02ad3fae",
  "mapsUrl": "https://www.google.com/maps?ftid=0x601885d885a0b68d:0xe8e807dc02ad3fae&hl=ja",
  "region": "tokyo"
 },
 {
  "name": "らあめんclover",
  "rating": 4.1,
  "reviews": 770,
  "lat": 35.7782824,
  "lng": 140.3203081,
  "genre": "ラーメン",
  "address": "花崎町７６６−２",
  "placeId": "0x60228b132304275d:0x9837954b442592b1",
  "mapsUrl": "https://www.google.com/maps?ftid=0x60228b132304275d:0x9837954b442592b1&hl=ja",
  "region": "tosou"
 },
 {
  "name": "ラーメンショップ ネモト",
  "rating": 4.1,
  "reviews": 726,
  "lat": 35.7449571,
  "lng": 140.3489251,
  "genre": "ラーメン",
  "address": "根木名１０１３",
  "placeId": "0x6022f3332ed4fdb3:0x117fce423ce3bad6",
  "mapsUrl": "https://www.google.com/maps?ftid=0x6022f3332ed4fdb3:0x117fce423ce3bad6&hl=ja",
  "region": "tosou"
 },
 {
  "name": "おダシと銀しゃり 中華そば 無作",
  "rating": 4.1,
  "reviews": 702,
  "lat": 35.7187038,
  "lng": 139.9282429,
  "genre": "ラーメン",
  "address": "南八幡３丁目８−９ SAP本八幡Ⅳ 1F",
  "placeId": "0x6018870039cda5df:0x13e18898b16396c7",
  "mapsUrl": "https://www.google.com/maps?ftid=0x6018870039cda5df:0x13e18898b16396c7&hl=ja",
  "region": "keiyo"
 },
 {
  "name": "濃厚鶏らーめん ゴッチ",
  "rating": 4.1,
  "reviews": 638,
  "lat": 35.5898265,
  "lng": 140.3930047,
  "genre": "ラーメン",
  "address": "姫島５２０−６",
  "placeId": "0x6022eaa1918cc879:0x88e85d048e9ed1b6",
  "mapsUrl": "https://www.google.com/maps?ftid=0x6022eaa1918cc879:0x88e85d048e9ed1b6&hl=ja",
  "region": "tosou"
 },
 {
  "name": "中華ソバ 篤々 TOKU−TOKU",
  "rating": 4.1,
  "reviews": 629,
  "lat": 35.71472,
  "lng": 140.1242586,
  "genre": "ラーメン",
  "address": "勝田台１丁目５−２７",
  "placeId": "0x602286e1216bcbd1:0x37b32a1e11cf395e",
  "mapsUrl": "https://www.google.com/maps?ftid=0x602286e1216bcbd1:0x37b32a1e11cf395e&hl=ja",
  "region": "inba"
 },
 {
  "name": "麺や 福一",
  "rating": 4.1,
  "reviews": 625,
  "lat": 35.779246,
  "lng": 140.314792,
  "genre": "ラーメン",
  "address": "花崎町８４６−１５",
  "placeId": "0x60228b0dd2f4400b:0x1760ebfff7753b1c",
  "mapsUrl": "https://www.google.com/maps?ftid=0x60228b0dd2f4400b:0x1760ebfff7753b1c&hl=ja",
  "region": "tosou"
 },
 {
  "name": "長州ラーメン万龍軒 富士見店",
  "rating": 4.1,
  "reviews": 617,
  "lat": 35.610967,
  "lng": 140.1166057,
  "genre": "ラーメン",
  "address": "富士見２丁目４−１３ 2F",
  "placeId": "0x602284b6cda5c28b:0x502f8e4e787c03cf",
  "mapsUrl": "https://www.google.com/maps?ftid=0x602284b6cda5c28b:0x502f8e4e787c03cf&hl=ja",
  "region": "chiba"
 },
 {
  "name": "麺や 多久味",
  "rating": 4.1,
  "reviews": 598,
  "lat": 35.686893,
  "lng": 139.8637222,
  "genre": "ラーメン",
  "address": "東小松川４丁目４２−１４ ベラルーサ １３番館",
  "placeId": "0x601887d293590085:0x25d2b109a9684cf6",
  "mapsUrl": "https://www.google.com/maps?ftid=0x601887d293590085:0x25d2b109a9684cf6&hl=ja",
  "region": "tokyo"
 },
 {
  "name": "長八",
  "rating": 4.1,
  "reviews": 582,
  "lat": 35.88395,
  "lng": 139.909848,
  "genre": "ラーメン",
  "address": "若葉台３−５",
  "placeId": "0x60189bdb986150a3:0xd23806ec1236657",
  "mapsUrl": "https://www.google.com/maps?ftid=0x60189bdb986150a3:0xd23806ec1236657&hl=ja",
  "region": "toukatsu"
 },
 {
  "name": "支那そば晴弘",
  "rating": 4.1,
  "reviews": 578,
  "lat": 35.6707343,
  "lng": 139.800409,
  "genre": "ラーメン",
  "address": "富岡１丁目２１−９ 竹内第一ビル 1階",
  "placeId": "0x6018890e4f4db24b:0x830dd3b56844e58a",
  "mapsUrl": "https://www.google.com/maps?ftid=0x6018890e4f4db24b:0x830dd3b56844e58a&hl=ja",
  "region": "tokyo"
 },
 {
  "name": "柏 濃麺や 39名",
  "rating": 4.1,
  "reviews": 576,
  "lat": 35.8170311,
  "lng": 139.9700087,
  "genre": "ラーメン",
  "address": "南増尾２丁目３−１３",
  "placeId": "0x6018839d6e7eb9e7:0xa8e9b020bfe943e4",
  "mapsUrl": "https://www.google.com/maps?ftid=0x6018839d6e7eb9e7:0xa8e9b020bfe943e4&hl=ja",
  "region": "toukatsu"
 },
 {
  "name": "博多・長浜ラーメン 一途",
  "rating": 4.1,
  "reviews": 565,
  "lat": 35.3887804,
  "lng": 139.9661176,
  "genre": "ラーメン",
  "address": "清川２丁目１２−９",
  "placeId": "0x60180baa152d9be5:0x6a5d20e5ccfbfbd2",
  "mapsUrl": "https://www.google.com/maps?ftid=0x60180baa152d9be5:0x6a5d20e5ccfbfbd2&hl=ja",
  "region": "boso"
 },
 {
  "name": "恵比寿ブタメン 大網本店",
  "rating": 4.1,
  "reviews": 556,
  "lat": 35.523995,
  "lng": 140.328535,
  "genre": "ラーメン",
  "address": "大網４６４−３",
  "placeId": "0x6022bfbee98163bb:0xf26a850b2354afcc",
  "mapsUrl": "https://www.google.com/maps?ftid=0x6022bfbee98163bb:0xf26a850b2354afcc&hl=ja",
  "region": "tosou"
 },
 {
  "name": "東陽らーめん",
  "rating": 4.1,
  "reviews": 549,
  "lat": 35.721075,
  "lng": 140.606076,
  "genre": "ラーメン",
  "address": "鎌数９４１９−３ コーポ東陽",
  "placeId": "0x6022e1579adce149:0xb10cd70fbf70e70d",
  "mapsUrl": "https://www.google.com/maps?ftid=0x6022e1579adce149:0xb10cd70fbf70e70d&hl=ja",
  "region": "tosou"
 },
 {
  "name": "パンケ (京成大久保)",
  "rating": 4.1,
  "reviews": 546,
  "lat": 35.686085,
  "lng": 140.049876,
  "genre": "ラーメン",
  "address": "大久保２丁目１−１",
  "placeId": "0x602281ad86e14919:0x6b3e206d2424a258",
  "mapsUrl": "https://www.google.com/maps?ftid=0x602281ad86e14919:0x6b3e206d2424a258&hl=ja",
  "region": "keiyo"
 },
 {
  "name": "ラーメン猪太",
  "rating": 4.1,
  "reviews": 529,
  "lat": 35.8605243,
  "lng": 139.9768224,
  "genre": "ラーメン",
  "address": "柏３丁目８−１２ 東和ビル 1F",
  "placeId": "0x60188e46f5df8d0d:0x2c8442feb2fe679d",
  "mapsUrl": "https://www.google.com/maps?ftid=0x60188e46f5df8d0d:0x2c8442feb2fe679d&hl=ja",
  "region": "toukatsu"
 },
 {
  "name": "めん結び 光の葉",
  "rating": 4.1,
  "reviews": 499,
  "lat": 35.5148573,
  "lng": 140.0676863,
  "genre": "ラーメン",
  "address": "五井西５丁目12−７",
  "placeId": "0x60229c28de42174f:0x7d246cf2bdf1292",
  "mapsUrl": "https://www.google.com/maps?ftid=0x60229c28de42174f:0x7d246cf2bdf1292&hl=ja",
  "region": "chiba"
 },
 {
  "name": "ラーメン野良裏家",
  "rating": 4.1,
  "reviews": 472,
  "lat": 35.5805678,
  "lng": 140.1287159,
  "genre": "ラーメン",
  "address": "今井２丁目１２−１",
  "placeId": "0x60229be619102d9b:0xd7cbd47298f07b4c",
  "mapsUrl": "https://www.google.com/maps?ftid=0x60229be619102d9b:0xd7cbd47298f07b4c&hl=ja",
  "region": "chiba"
 },
 {
  "name": "ボウボウラーメンかそり店",
  "rating": 4.1,
  "reviews": 468,
  "lat": 35.6177473,
  "lng": 140.1663084,
  "genre": "ラーメン",
  "address": "加曽利町１６８０−１",
  "placeId": "0x60229ab6e131940f:0xdf83d971d32b1008",
  "mapsUrl": "https://www.google.com/maps?ftid=0x60229ab6e131940f:0xdf83d971d32b1008&hl=ja",
  "region": "chiba"
 },
 {
  "name": "麺屋 長次郎 by IZAKAYA眞",
  "rating": 4.1,
  "reviews": 451,
  "lat": 35.7192614,
  "lng": 139.9269589,
  "genre": "ラーメン",
  "address": "南八幡３丁目６−１７ 2階 IZAKAYA眞",
  "placeId": "0x601887f6834ff49d:0xda6f8b669225616d",
  "mapsUrl": "https://www.google.com/maps?ftid=0x601887f6834ff49d:0xda6f8b669225616d&hl=ja",
  "region": "keiyo"
 },
 {
  "name": "銀座 篝 成田空港店",
  "rating": 4.1,
  "reviews": 450,
  "lat": 35.7737174,
  "lng": 140.3899896,
  "genre": "ラーメン",
  "address": "古込１−１",
  "placeId": "0x6022f3b19ede8e47:0xc605bce1a7ee50eb",
  "mapsUrl": "https://www.google.com/maps?ftid=0x6022f3b19ede8e47:0xc605bce1a7ee50eb&hl=ja",
  "region": "tosou"
 },
 {
  "name": "らぁめん 一撃",
  "rating": 4.1,
  "reviews": 447,
  "lat": 35.7838374,
  "lng": 139.9014473,
  "genre": "ラーメン",
  "address": "松戸１２２８−１ 松戸ステーションビル 102号",
  "placeId": "0x601884fb7844d345:0x461caec966ec604",
  "mapsUrl": "https://www.google.com/maps?ftid=0x601884fb7844d345:0x461caec966ec604&hl=ja",
  "region": "toukatsu"
 },
 {
  "name": "らーめんなが田",
  "rating": 4.1,
  "reviews": 441,
  "lat": 35.6995944,
  "lng": 139.8268781,
  "genre": "ラーメン",
  "address": "亀戸５丁目１７−２２",
  "placeId": "0x601888c5a6ebdf81:0x6f3273db47a54a3e",
  "mapsUrl": "https://www.google.com/maps?ftid=0x601888c5a6ebdf81:0x6f3273db47a54a3e&hl=ja",
  "region": "tokyo"
 },
 {
  "name": "中華ソバ 坂本",
  "rating": 4.1,
  "reviews": 438,
  "lat": 35.7313859,
  "lng": 140.8390083,
  "genre": "ラーメン",
  "address": "陣屋町２−３",
  "placeId": "0x602322ae43cebc0f:0x241208c57f3ea476",
  "mapsUrl": "https://www.google.com/maps?ftid=0x602322ae43cebc0f:0x241208c57f3ea476&hl=ja",
  "region": "tosou"
 },
 {
  "name": "ラーメンみなみ",
  "rating": 4.1,
  "reviews": 424,
  "lat": 35.6710584,
  "lng": 139.8751569,
  "genre": "ラーメン",
  "address": "中葛西２丁目１９−１５ 越川ビル 102",
  "placeId": "0x60188787a4230703:0xf1c05d82ee303936",
  "mapsUrl": "https://www.google.com/maps?ftid=0x60188787a4230703:0xf1c05d82ee303936&hl=ja",
  "region": "tokyo"
 },
 {
  "name": "ボウボウラーメンとみ",
  "rating": 4.1,
  "reviews": 400,
  "lat": 35.7290011,
  "lng": 140.3486789,
  "genre": "ラーメン",
  "address": "御料１００５−４ 千曲ビル",
  "placeId": "0x6022f2d4afad0b11:0xf62d376cb58878f",
  "mapsUrl": "https://www.google.com/maps?ftid=0x6022f2d4afad0b11:0xf62d376cb58878f&hl=ja",
  "region": "tosou"
 },
 {
  "name": "麺屋要",
  "rating": 4.1,
  "reviews": 399,
  "lat": 35.4788372,
  "lng": 140.0432674,
  "genre": "ラーメン",
  "address": "姉崎東１丁目12−４",
  "placeId": "0x60229f97f69ab211:0xf8a95141bfeea88d",
  "mapsUrl": "https://www.google.com/maps?ftid=0x60229f97f69ab211:0xf8a95141bfeea88d&hl=ja",
  "region": "chiba"
 },
 {
  "name": "麺処ゆきち",
  "rating": 4.1,
  "reviews": 396,
  "lat": 35.7148859,
  "lng": 140.0427766,
  "genre": "ラーメン",
  "address": "習志野台４丁目１−８",
  "placeId": "0x60227fde39be3b69:0xb90477225a29c4ec",
  "mapsUrl": "https://www.google.com/maps?ftid=0x60227fde39be3b69:0xb90477225a29c4ec&hl=ja",
  "region": "keiyo"
 },
 {
  "name": "らーめん殿",
  "rating": 4.1,
  "reviews": 392,
  "lat": 35.7429671,
  "lng": 139.8840483,
  "genre": "ラーメン",
  "address": "北小岩６丁目１１−１３ リッツコーポ",
  "placeId": "0x601885c539eda421:0x24e4a084787297c1",
  "mapsUrl": "https://www.google.com/maps?ftid=0x601885c539eda421:0x24e4a084787297c1&hl=ja",
  "region": "tokyo"
 },
 {
  "name": "鯛塩そば 灯花 シャポー船橋店",
  "rating": 4.1,
  "reviews": 391,
  "lat": 35.7013768,
  "lng": 139.9849096,
  "genre": "ラーメン",
  "address": "本町７丁目１−１ シャポー船橋 本館 ３Ｆ",
  "placeId": "0x601881eed6035763:0x7aade3ee5dd40fca",
  "mapsUrl": "https://www.google.com/maps?ftid=0x601881eed6035763:0x7aade3ee5dd40fca&hl=ja",
  "region": "keiyo"
 },
 {
  "name": "麺処 らふてる",
  "rating": 4.1,
  "reviews": 391,
  "lat": 35.4160174,
  "lng": 140.3000377,
  "genre": "ラーメン",
  "address": "早野２６５４−１",
  "placeId": "0x6022b9f7925074fb:0x7b5ce803e70881d8",
  "mapsUrl": "https://www.google.com/maps?ftid=0x6022b9f7925074fb:0x7b5ce803e70881d8&hl=ja",
  "region": "boso"
 },
 {
  "name": "ら～めんコジマル 宮野木店",
  "rating": 4.1,
  "reviews": 388,
  "lat": 35.6596128,
  "lng": 140.1043059,
  "genre": "ラーメン",
  "address": "宮野木町１８４９−４５",
  "placeId": "0x6022854d0f2a325f:0xa2fcea619fde078f",
  "mapsUrl": "https://www.google.com/maps?ftid=0x6022854d0f2a325f:0xa2fcea619fde078f&hl=ja",
  "region": "chiba"
 },
 {
  "name": "やなか草",
  "rating": 4.1,
  "reviews": 387,
  "lat": 35.7079108,
  "lng": 139.8418385,
  "genre": "ラーメン",
  "address": "平井５丁目２０−１３ 欣志ビル",
  "placeId": "0x601888b089812f8d:0xf293682a23967263",
  "mapsUrl": "https://www.google.com/maps?ftid=0x601888b089812f8d:0xf293682a23967263&hl=ja",
  "region": "tokyo"
 },
 {
  "name": "めん丸 仁戸名店",
  "rating": 4.1,
  "reviews": 381,
  "lat": 35.5787249,
  "lng": 140.1663611,
  "genre": "ラーメン",
  "address": "仁戸名町７１４−２ らーめんめん丸",
  "placeId": "0x60229a6622fd3c3b:0xa05347e945aed844",
  "mapsUrl": "https://www.google.com/maps?ftid=0x60229a6622fd3c3b:0xa05347e945aed844&hl=ja",
  "region": "chiba"
 },
 {
  "name": "横浜らーめん 寿三家ことみや",
  "rating": 4.1,
  "reviews": 379,
  "lat": 35.8659512,
  "lng": 140.020996,
  "genre": "ラーメン",
  "address": "緑２丁目１１−３３",
  "placeId": "0x60227784039aa359:0x44e39d2548465590",
  "mapsUrl": "https://www.google.com/maps?ftid=0x60227784039aa359:0x44e39d2548465590&hl=ja",
  "region": "toukatsu"
 },
 {
  "name": "鶏白湯らーめん叶",
  "rating": 4.1,
  "reviews": 378,
  "lat": 35.8589956,
  "lng": 139.9691375,
  "genre": "ラーメン",
  "address": "中央町７−１８",
  "placeId": "0x60189df31b053bff:0x67755b26f541e06",
  "mapsUrl": "https://www.google.com/maps?ftid=0x60189df31b053bff:0x67755b26f541e06&hl=ja",
  "region": "toukatsu"
 },
 {
  "name": "らーめん まる玉 大島店",
  "rating": 4.1,
  "reviews": 372,
  "lat": 35.6893741,
  "lng": 139.8321305,
  "genre": "ラーメン",
  "address": "大島４丁目８−１３",
  "placeId": "0x601888ec8244bf45:0xa056ec083c0a9202",
  "mapsUrl": "https://www.google.com/maps?ftid=0x601888ec8244bf45:0xa056ec083c0a9202&hl=ja",
  "region": "tokyo"
 },
 {
  "name": "中華蕎麦 志の田",
  "rating": 4.1,
  "reviews": 365,
  "lat": 35.7883841,
  "lng": 139.9282633,
  "genre": "ラーメン",
  "address": "松戸新田５７３−２",
  "placeId": "0x60188487a27b89bd:0x16c5666d555790bc",
  "mapsUrl": "https://www.google.com/maps?ftid=0x60188487a27b89bd:0x16c5666d555790bc&hl=ja",
  "region": "toukatsu"
 },
 {
  "name": "麦処 八と丁",
  "rating": 4.1,
  "reviews": 356,
  "lat": 35.683723,
  "lng": 139.8818601,
  "genre": "ラーメン",
  "address": "一之江８丁目２−２０",
  "placeId": "0x6018876a2754f7a5:0x4ad1b83cb26e9384",
  "mapsUrl": "https://www.google.com/maps?ftid=0x6018876a2754f7a5:0x4ad1b83cb26e9384&hl=ja",
  "region": "tokyo"
 },
 {
  "name": "支那そば うみ",
  "rating": 4.1,
  "reviews": 344,
  "lat": 35.6614742,
  "lng": 140.317535,
  "genre": "ラーメン",
  "address": "ほ２３０−１９",
  "placeId": "0x602292edf724d439:0x86961e8445d5647",
  "mapsUrl": "https://www.google.com/maps?ftid=0x602292edf724d439:0x86961e8445d5647&hl=ja",
  "region": "tosou"
 },
 {
  "name": "麺屋永吉 花鳥風月",
  "rating": 4.1,
  "reviews": 342,
  "lat": 35.6660404,
  "lng": 139.8721157,
  "genre": "ラーメン",
  "address": "中葛西３丁目３０−１１ ハピネスコート 102",
  "placeId": "0x601887edb1d7e3e3:0xba0451eed1cc2fab",
  "mapsUrl": "https://www.google.com/maps?ftid=0x601887edb1d7e3e3:0xba0451eed1cc2fab&hl=ja",
  "region": "tokyo"
 },
 {
  "name": "ラーメン 虎ノ穴",
  "rating": 4.1,
  "reviews": 338,
  "lat": 35.6433658,
  "lng": 140.0899861,
  "genre": "ラーメン",
  "address": "小仲台７丁目１６−６",
  "placeId": "0x60228391dad512ef:0x85efc292d4178929",
  "mapsUrl": "https://www.google.com/maps?ftid=0x60228391dad512ef:0x85efc292d4178929&hl=ja",
  "region": "chiba"
 },
 {
  "name": "ニューラーメンショップ大光",
  "rating": 4.1,
  "reviews": 334,
  "lat": 35.7730733,
  "lng": 140.0920566,
  "genre": "ラーメン",
  "address": "神久保７５−１４",
  "placeId": "0x60227f005e552325:0xaad795e2a2b5645d",
  "mapsUrl": "https://www.google.com/maps?ftid=0x60227f005e552325:0xaad795e2a2b5645d&hl=ja",
  "region": "toukatsu"
 },
 {
  "name": "麺や 美好",
  "rating": 4.1,
  "reviews": 329,
  "lat": 35.5956787,
  "lng": 140.1194481,
  "genre": "ラーメン",
  "address": "寒川町１丁目８０",
  "placeId": "0x60229b47c91e6215:0xc91cd34837fb561f",
  "mapsUrl": "https://www.google.com/maps?ftid=0x60229b47c91e6215:0xc91cd34837fb561f&hl=ja",
  "region": "chiba"
 },
 {
  "name": "香辣居",
  "rating": 4.1,
  "reviews": 321,
  "lat": 35.6878792,
  "lng": 139.8266776,
  "genre": "ラーメン",
  "address": "大島４丁目２−３ 栄進ビル",
  "placeId": "0x601889a8e187526f:0xca9391769997ba3",
  "mapsUrl": "https://www.google.com/maps?ftid=0x601889a8e187526f:0xca9391769997ba3&hl=ja",
  "region": "tokyo"
 },
 {
  "name": "らーめんとも",
  "rating": 4.1,
  "reviews": 318,
  "lat": 35.4481879,
  "lng": 140.0005813,
  "genre": "ラーメン",
  "address": "長浦駅前３丁目３−１",
  "placeId": "0x6018759fd5c59a77:0x575a57a4d432fb64",
  "mapsUrl": "https://www.google.com/maps?ftid=0x6018759fd5c59a77:0x575a57a4d432fb64&hl=ja",
  "region": "boso"
 },
 {
  "name": "らーめん太助",
  "rating": 4.1,
  "reviews": 308,
  "lat": 35.7194737,
  "lng": 140.0530036,
  "genre": "ラーメン",
  "address": "習志野台５丁目４０−３",
  "placeId": "0x6022807b0faa5555:0x81e5fd77668182dd",
  "mapsUrl": "https://www.google.com/maps?ftid=0x6022807b0faa5555:0x81e5fd77668182dd&hl=ja",
  "region": "keiyo"
 },
 {
  "name": "魔乃巣",
  "rating": 4.1,
  "reviews": 307,
  "lat": 35.7861571,
  "lng": 139.8985708,
  "genre": "ラーメン",
  "address": "本町１４−９",
  "placeId": "0x601884e31ee78fe5:0xe9788aba1e9f6998",
  "mapsUrl": "https://www.google.com/maps?ftid=0x601884e31ee78fe5:0xe9788aba1e9f6998&hl=ja",
  "region": "toukatsu"
 },
 {
  "name": "中華そば はたかくる",
  "rating": 4.1,
  "reviews": 297,
  "lat": 35.7267727,
  "lng": 140.0832993,
  "genre": "ラーメン",
  "address": "大和田新田９１７−３６",
  "placeId": "0x602280bc4dc58269:0xaffe44936635000c",
  "mapsUrl": "https://www.google.com/maps?ftid=0x602280bc4dc58269:0xaffe44936635000c&hl=ja",
  "region": "toukatsu"
 },
 {
  "name": "麺AKIBA",
  "rating": 4.1,
  "reviews": 296,
  "lat": 35.877734,
  "lng": 139.986131,
  "genre": "ラーメン",
  "address": "根戸２１６−１",
  "placeId": "0x60189d05a51596b5:0x1bec09e44ea2d205",
  "mapsUrl": "https://www.google.com/maps?ftid=0x60189d05a51596b5:0x1bec09e44ea2d205&hl=ja",
  "region": "toukatsu"
 },
 {
  "name": "らーめん和田屋 津田沼店",
  "rating": 4.1,
  "reviews": 292,
  "lat": 35.6931466,
  "lng": 140.0214478,
  "genre": "ラーメン",
  "address": "前原西２丁目１３−１ 102",
  "placeId": "0x6022811b8d8fb897:0xc531d524dd52eebb",
  "mapsUrl": "https://www.google.com/maps?ftid=0x6022811b8d8fb897:0xc531d524dd52eebb&hl=ja",
  "region": "keiyo"
 },
 {
  "name": "麺屋 まるきた商店",
  "rating": 4.1,
  "reviews": 292,
  "lat": 35.6540698,
  "lng": 140.3047531,
  "genre": "ラーメン",
  "address": "ほ９６３−２",
  "placeId": "0x602293c958f5312b:0xa29fc714e9c287f",
  "mapsUrl": "https://www.google.com/maps?ftid=0x602293c958f5312b:0xa29fc714e9c287f&hl=ja",
  "region": "tosou"
 },
 {
  "name": "禪（ひらめき）",
  "rating": 4.1,
  "reviews": 283,
  "lat": 35.7312625,
  "lng": 139.901688,
  "genre": "ラーメン",
  "address": "市川南３丁目１３−２",
  "placeId": "0x60188685f9fee333:0x92c77a3313c8cffd",
  "mapsUrl": "https://www.google.com/maps?ftid=0x60188685f9fee333:0x92c77a3313c8cffd&hl=ja",
  "region": "toukatsu"
 },
 {
  "name": "とんこつらーめん おんごろや",
  "rating": 4.1,
  "reviews": 282,
  "lat": 35.6650763,
  "lng": 139.8897333,
  "genre": "ラーメン",
  "address": "猫実５丁目１２−１２ アーバン･ホーム吉茂",
  "placeId": "0x60188786c437bca7:0xcc2ea8c80ed4423",
  "mapsUrl": "https://www.google.com/maps?ftid=0x60188786c437bca7:0xcc2ea8c80ed4423&hl=ja",
  "region": "keiyo"
 },
 {
  "name": "麺屋 星花灯",
  "rating": 4.1,
  "reviews": 279,
  "lat": 35.8520854,
  "lng": 140.5884176,
  "genre": "ラーメン",
  "address": "野田４０８−１",
  "placeId": "0x6022fd007e58f5c7:0x7c5c22a0f19fbca",
  "mapsUrl": "https://www.google.com/maps?ftid=0x6022fd007e58f5c7:0x7c5c22a0f19fbca&hl=ja",
  "region": "tosou"
 },
 {
  "name": "一兎",
  "rating": 4.1,
  "reviews": 278,
  "lat": 35.7311279,
  "lng": 139.9113749,
  "genre": "ラーメン",
  "address": "新田５丁目５−２３",
  "placeId": "0x60188696b3e2ee49:0x9663fc8411ab2dc",
  "mapsUrl": "https://www.google.com/maps?ftid=0x60188696b3e2ee49:0x9663fc8411ab2dc&hl=ja",
  "region": "toukatsu"
 },
 {
  "name": "長州ラーメン万龍軒 新町店",
  "rating": 4.1,
  "reviews": 277,
  "lat": 35.6093671,
  "lng": 140.1112731,
  "genre": "ラーメン",
  "address": "新町２５−１２",
  "placeId": "0x602284b1d5839501:0x182df61775c9d44d",
  "mapsUrl": "https://www.google.com/maps?ftid=0x602284b1d5839501:0x182df61775c9d44d&hl=ja",
  "region": "chiba"
 },
 {
  "name": "ラーメンダイニングすどらぁ",
  "rating": 4.1,
  "reviews": 277,
  "lat": 35.3362678,
  "lng": 139.8634666,
  "genre": "ラーメン",
  "address": "大堀１５６０−５",
  "placeId": "0x60180d67b6445367:0xa27c42ec9166f998",
  "mapsUrl": "https://www.google.com/maps?ftid=0x60180d67b6445367:0xa27c42ec9166f998&hl=ja",
  "region": "boso"
 },
 {
  "name": "中華そば 亜熱帯",
  "rating": 4.1,
  "reviews": 274,
  "lat": 35.7198119,
  "lng": 139.8909487,
  "genre": "ラーメン",
  "address": "東小岩１丁目４−５",
  "placeId": "0x60188660d66fd2f3:0xbefd036db24f71a5",
  "mapsUrl": "https://www.google.com/maps?ftid=0x60188660d66fd2f3:0xbefd036db24f71a5&hl=ja",
  "region": "tokyo"
 },
 {
  "name": "えびす家",
  "rating": 4.1,
  "reviews": 272,
  "lat": 34.9323308,
  "lng": 139.9531508,
  "genre": "ラーメン",
  "address": "千倉町千田８６１−１",
  "placeId": "0x6017e341747fbee5:0xb95251211aea9601",
  "mapsUrl": "https://www.google.com/maps?ftid=0x6017e341747fbee5:0xb95251211aea9601&hl=ja",
  "region": "boso"
 },
 {
  "name": "アカシヤ",
  "rating": 4.1,
  "reviews": 261,
  "lat": 35.7262958,
  "lng": 139.8883947,
  "genre": "ラーメン",
  "address": "南小岩３丁目２６−１０ 102",
  "placeId": "0x6018867b2f56b3e1:0x43e84249bf193e01",
  "mapsUrl": "https://www.google.com/maps?ftid=0x6018867b2f56b3e1:0x43e84249bf193e01&hl=ja",
  "region": "tokyo"
 },
 {
  "name": "まきば",
  "rating": 4.1,
  "reviews": 255,
  "lat": 35.8428612,
  "lng": 140.0082932,
  "genre": "ラーメン",
  "address": "大島田４２−３",
  "placeId": "0x601882bb53b02e55:0x5e97a79c38e4ffa0",
  "mapsUrl": "https://www.google.com/maps?ftid=0x601882bb53b02e55:0x5e97a79c38e4ffa0&hl=ja",
  "region": "toukatsu"
 },
 {
  "name": "濃厚鶏らーめん106(旭市本店)",
  "rating": 4.1,
  "reviews": 255,
  "lat": 35.7181054,
  "lng": 140.6170475,
  "genre": "ラーメン",
  "address": "ニ６１１０−１",
  "placeId": "0x6022e1160dba6273:0x277049904f284431",
  "mapsUrl": "https://www.google.com/maps?ftid=0x6022e1160dba6273:0x277049904f284431&hl=ja",
  "region": "tosou"
 },
 {
  "name": "勝浦たんたん麺 あざみ",
  "rating": 4.1,
  "reviews": 255,
  "lat": 35.1888024,
  "lng": 140.2654002,
  "genre": "ラーメン",
  "address": "小羽戸４２３",
  "placeId": "0x603d4c83dfc07c6f:0x75afc5ff44e67a4c",
  "mapsUrl": "https://www.google.com/maps?ftid=0x603d4c83dfc07c6f:0x75afc5ff44e67a4c&hl=ja",
  "region": "boso"
 },
 {
  "name": "豚粉屋",
  "rating": 4.1,
  "reviews": 254,
  "lat": 35.8003414,
  "lng": 139.9677448,
  "genre": "ラーメン",
  "address": "五香６丁目１７−９",
  "placeId": "0x601883a1531c84e9:0xfd4ee17313b0c779",
  "mapsUrl": "https://www.google.com/maps?ftid=0x601883a1531c84e9:0xfd4ee17313b0c779&hl=ja",
  "region": "toukatsu"
 },
 {
  "name": "ともちゃんらーめん",
  "rating": 4.1,
  "reviews": 245,
  "lat": 35.3068564,
  "lng": 139.9505183,
  "genre": "ラーメン",
  "address": "中島１８１−２",
  "placeId": "0x60180944ebbf0e77:0x255816d34b9a16e5",
  "mapsUrl": "https://www.google.com/maps?ftid=0x60180944ebbf0e77:0x255816d34b9a16e5&hl=ja",
  "region": "boso"
 },
 {
  "name": "はなぶさ",
  "rating": 4.1,
  "reviews": 234,
  "lat": 35.669444,
  "lng": 139.8609,
  "genre": "ラーメン",
  "address": "西葛西４丁目１−１９",
  "placeId": "0x601887dded95c511:0x20fb36de73d80d34",
  "mapsUrl": "https://www.google.com/maps?ftid=0x601887dded95c511:0x20fb36de73d80d34&hl=ja",
  "region": "tokyo"
 },
 {
  "name": "へいきち 多古店",
  "rating": 4.1,
  "reviews": 231,
  "lat": 35.7304683,
  "lng": 140.4764766,
  "genre": "ラーメン",
  "address": "南中９５２−１",
  "placeId": "0x6022ef8dcccdfd11:0x80417fb2cf55a214",
  "mapsUrl": "https://www.google.com/maps?ftid=0x6022ef8dcccdfd11:0x80417fb2cf55a214&hl=ja",
  "region": "tosou"
 },
 {
  "name": "香味屋",
  "rating": 4.1,
  "reviews": 231,
  "lat": 35.6924273,
  "lng": 139.867506,
  "genre": "ラーメン",
  "address": "東小松川３丁目３６−１１",
  "placeId": "0x6018863252d8e0e3:0x23b54197ee74bd8a",
  "mapsUrl": "https://www.google.com/maps?ftid=0x6018863252d8e0e3:0x23b54197ee74bd8a&hl=ja",
  "region": "tokyo"
 },